     2.11           OBSERVATION DATA    G (GPS)             RINEX VERSION / TYPE
teqc  2013Mar15     gpsops              20150112 00:11:12UTCPGM / RUN BY / DATE
Linux 2.4.21-27.ELsmp|Opteron|gcc -static|Linux x86_64|=+   COMMENT
BIT 2 OF LLI FLAGS DATA COLLECTED UNDER A/S CONDITION       COMMENT
BOGT                                                        MARKER NAME
41901M001                                                   MARKER NUMBER
GGN                 JPL                                     OBSERVER / AGENCY
UC120031609         ASHTECH UZ-12       CQ00                REC # / TYPE / VERS
CR620024311         ASH701945E_M    NONE                    ANT # / TYPE
  1744399.0397 -6116037.5577   512731.7532                  APPROX POSITION XYZ
        0.0610        0.0000        0.0000                  ANTENNA: DELTA H/E/N
     1     1                                                WAVELENGTH FACT L1/2
     7    L1    L2    P1    P2    C1    S1    S2            # / TYPES OF OBSERV
    30.0000                                                 INTERVAL
                                                            COMMENT
This data is provided as a public service by NASA/JPL.      COMMENT
No warranty is expressed or implied regarding suitability   COMMENT
for use.  For further information, contact:                 COMMENT
Dave Stowers, NASA/JPL m/s 238-600                          COMMENT
4800 Oak Grove Drive, Pasadena CA 91109 USA                 COMMENT
                                                            COMMENT
Forced Modulo Decimation to 30 seconds                      COMMENT
 SNR is mapped to RINEX snr flag value [0-9]                COMMENT
  L1 & L2: min(max(int(snr_dBHz/6), 0), 9)                  COMMENT
pseudorange smoothing corrections not applied               COMMENT
  2015     1    11     0     0    0.0000000     GPS         TIME OF FIRST OBS
                                                            END OF HEADER
 15  1 11  0  0  0.0000000  0  7G27G16G14G32G08G22G31
  -3502086.43547  -2712254.22246  22733902.7424   22733916.4464   22733902.376
        46.0004         41.0004
 -18613748.48048 -14489772.07448  20440472.9134   20440477.7774   20440473.042
        52.0004         48.0004
 -15277012.75448 -11901021.93447  21787766.3464   21787772.0384   21787767.102
        48.0004         44.0004
 -14752731.17848 -11476506.27647  21537849.4844   21537855.4804   21537849.591
        51.0004         46.0004
  -9564202.69447  -7439736.52946  23281841.4254   23281847.4244   23281842.107
        44.0004         40.0004
 -30037067.56448 -23397624.92747  22240214.9494   22240224.2834   22240215.336
        48.0004         43.0004
   -559365.79147   -436336.69546  23433967.3044   23433969.7104   23433967.092
        45.0004         40.0004
 15  1 11  0  0 30.0000000  0  7G27G16G14G32G08G22G31
  -3583443.80047  -2775649.37847  22718421.3364   22718434.5144   22718421.353
        46.0004         42.0004
 -18633509.89548 -14505170.52148  20436712.9364   20436717.5764   20436713.170
        52.0004         48.0004
 -15279685.59748 -11903104.70847  21787257.5354   21787263.7784   21787257.833
        48.0004         44.0004
 -14782341.76748 -11499579.45347  21532215.3344   21532220.7964   21532215.381
        51.0004         47.0004
  -9549586.35047  -7428347.10146  23284623.0184   23284628.6424   23284623.260
        44.0004         40.0004
 -29946028.22547 -23326685.60847  22257539.4804   22257548.9144   22257539.919
        47.0004         43.0004
   -529819.82947   -413313.83446  23439589.2344   23439592.5824   23439589.429
        45.0004         40.0004
 15  1 11  0  1  0.0000000  0  7G27G16G14G32G08G22G31
  -3664789.38947  -2839035.38146  22702941.5994   22702955.0184   22702941.481
        46.0004         41.0004
 -18652681.12748 -14520109.07847  20433064.4354   20433069.7514   20433064.795
        52.0004         47.0004
 -15281994.57848 -11904903.93947  21786818.2694   21786825.1914   21786818.535
        48.0004         43.0004
 -14811487.13548 -11522290.11947  21526668.4004   21526674.4124   21526669.433
        51.0004         45.0004
  -9535065.67847  -7417032.21746  23287385.9904   23287390.5434   23287386.920
        45.0004         39.0004
 -29854835.15647 -23255626.48146  22274892.4474   22274901.7644   22274893.013
        47.0004         41.0004
   -500472.62247   -390445.87746  23445174.5204   23445177.2934   23445173.306
        45.0004         40.0004
 15  1 11  0  1 30.0000000  0  7G27G16G14G32G08G22G31
  -3746121.72647  -2902411.03946  22687464.2834   22687477.1964   22687464.338
        46.0004         41.0004
 -18671263.57548 -14534588.84848  20429528.6204   20429533.3034   20429528.871
        52.0004         48.0004
 -15283938.83848 -11906418.98247  21786448.6304   21786454.4864   21786448.396
        48.0004         44.0004
 -14840168.06648 -11544638.88347  21521210.8574   21521216.4134   21521211.180
        51.0004         46.0004
  -9520643.78447  -7405794.34246  23290130.3894   23290135.7334   23290130.820
        44.0004         40.0004
 -29763492.84647 -23184451.07747  22292274.8104   22292285.1774   22292276.090
        47.0004         42.0004
   -471325.80147   -367734.03946  23450720.1164   23450724.0944   23450720.648
        45.0004         40.0004
 15  1 11  0  2  0.0000000  0  7G27G16G14G32G08G22G31
  -3827433.05547  -2965770.31946  22671991.0144   22672004.5104   22671990.672
        46.0004         41.0004
 -18689252.05748 -14548605.78348  20426105.1324   20426109.9904   20426105.140
        52.0004         48.0004
 -15285511.42848 -11907644.41247  21786148.9854   21786155.6884   21786149.518
        48.0004         44.0004
 -14868379.07248 -11566621.47247  21515842.2894   21515848.7364   21515843.392
        51.0004         46.0004
  -9506316.96747  -7394630.52046  23292857.5674   23292862.8244   23292857.415
        44.0004         39.0004
 -29671998.86947 -23113157.47547  22309686.2584   22309695.2514   22309687.004
        47.0004         42.0004
   -442374.20847   -345174.30946  23456229.1714   23456232.1574   23456227.805
        45.0004         40.0004
 15  1 11  0  2 30.0000000  0  7G27G16G14G32G08G22G31
  -3908725.11747  -3029114.60246  22656521.5894   22656534.4784   22656521.644
        46.0004         41.0004
 -18706650.66048 -14562163.07647  20422794.2694   20422799.1764   20422794.587
        53.0004         47.0004
 -15286714.93848 -11908582.25147  21785919.6814   21785926.7414   21785920.296
        49.0004         43.0004
 -14896124.23148 -11588241.05947  21510562.9104   21510568.2124   21510563.143
        51.0004         46.0004
  -9492091.19747  -7383545.44246  23295564.7774   23295568.0564   23295564.889
        44.0004         39.0004
 -29580360.21347 -23041751.15747  22327124.3924   22327134.0514   22327124.573
        47.0004         42.0004
   -413622.69257   -322770.52356  23461700.9535   23461705.4615   23461699.745
        45.0004         40.0004
 15  1 11  0  3  0.0000000  0  7G27G16G14G32G08G22G31
  -3989997.41047  -3092443.47646  22641055.6854   22641069.3334   22641055.284
        46.0004         41.0004
 -18723462.44548 -14575263.10847  20419595.6394   20419600.0144   20419595.702
        52.0004         47.0004
 -15287549.70548 -11909232.75347  21785761.5974   21785768.1714   21785761.931
        48.0004         43.0004
 -14923405.31148 -11609499.01747  21505371.5094   21505377.1814   21505371.724
        51.0004         46.0004
  -9477970.14747  -7372541.96146  23298250.9844   23298256.4464   23298251.042
        43.0004         38.0004
 -29488582.22347 -22970236.28647  22344589.9104   22344599.3104   22344591.212
        46.0004         42.0004
   -385073.78447   -300524.60346  23467133.6614   23467137.3274   23467133.152
        44.0004         39.0004
 15  1 11  0  3 30.0000000  0  7G27G16G14G32G08G22G31
  -4071241.03447  -3155750.01446  22625595.8784   22625608.6804   22625595.036
        46.0004         41.0004
 -18739681.14848 -14587901.00247  20416508.4734   20416513.4184   20416508.795
        52.0004         47.0004
 -15288007.93348 -11909589.85547  21785674.3554   21785679.9824   21785674.383
        48.0004         43.0004
 -14950215.88448 -11630390.35947  21500270.1684   21500275.1354   21500270.257
        51.0004         46.0004
  -9463949.25047  -7361616.54846  23300918.5154   23300923.2274   23300919.545
        43.0004         38.0004
 -29396661.17147 -22898609.92046  22362081.5974   22362092.3984   22362082.289
        46.0004         41.0004
   -356721.35647   -278431.79246  23472529.3664   23472531.5834   23472528.702
        44.0004         39.0004
 15  1 11  0  4  0.0000000  0  7G27G16G14G32G08G22G31
  -4152460.32647  -3219037.58847  22610139.8514   22610152.3944   22610139.994
        47.0004         42.0004
 -18755313.98948 -14600082.37548  20413533.6374   20413538.6574   20413534.048
        53.0004         48.0004
 -15288094.81248 -11909657.58847  21785657.6704   21785663.7474   21785658.077
        49.0004         44.0004
 -14976562.63648 -11650920.27547  21495255.7114   21495261.4964   21495256.307
        51.0004         47.0004
  -9450037.00047  -7350775.78346  23303566.9934   23303571.1934   23303567.179
        44.0004         39.0004
 -29304606.67847 -22826879.60347  22379599.9764   22379609.8954   22379600.409
        47.0004         43.0004
   -328572.26847   -256497.41546  23477885.3374   23477889.0274   23477885.273
        45.0004         40.0004
 15  1 11  0  4 30.0000000  0  7G27G16G14G32G08G22G31
  -4233647.70148  -3282300.29447  22594689.7664   22594703.2924   22594689.454
        48.0004         43.0004
 -18770356.32148 -14611803.60948  20410670.9384   20410676.2404   20410671.395
        53.0004         49.0004
 -15287803.97048 -11909430.99147  21785713.6464   21785719.4474   21785714.055
        49.0004         45.0004
 -15002440.39548 -11671084.75047  21490331.9514   21490336.7004   21490332.156
        52.0004         47.0004
  -9436230.01947  -7340017.01646  23306192.9484   23306199.4314   23306193.426
        44.0004         40.0004
 -29212417.02148 -22755043.94947  22397143.2304   22397153.2064   22397144.081
        48.0004         43.0004
   -300622.19547   -234718.10346  23483203.4014   23483208.1014   23483202.716
        45.0004         41.0004
 15  1 11  0  5  0.0000000  0  7G27G16G14G32G08G22G31
  -4314799.40247  -3345535.20747  22579247.0174   22579260.4684   22579245.784
        47.0004         42.0004
 -18784806.62148 -14623063.51847  20407921.4804   20407926.3444   20407921.295
        53.0004         47.0004
 -15287132.63848 -11908907.91447  21785840.9424   21785847.0654   21785841.503
        49.0004         42.0004
 -15027847.88748 -11690882.78847  21485496.5914   21485502.0494   21485496.894
        52.0004         45.0004
  -9422528.71457  -7329340.59656  23308801.2885   23308807.2485   23308801.471
        44.0004         39.0004
 -29120093.72947 -22683104.17846  22414711.8354   22414722.2204   22414713.118
        47.0004         41.0004
   -272870.09647   -213093.08246  23488484.3394   23488487.9014   23488483.893
        45.0004         39.0004
 15  1 11  0  5 30.0000000  0  7G27G16G14G32G08G22G31
  -4395919.51848  -3408745.48947  22563810.9864   22563824.2934   22563810.494
        48.0004         44.0004
 -18798672.76048 -14633868.24548  20405282.8564   20405287.4734   20405283.558
        53.0004         49.0004
 -15286085.67048 -11908092.14147  21786040.6264   21786046.6294   21786040.261
        49.0004         45.0004
 -15052791.74348 -11710319.54148  21480749.8184   21480755.5734   21480750.297
        52.0004         48.0004
  -9408941.25647  -7318752.92746  23311388.0514   23311392.3074   23311388.037
        45.0004         41.0004
 -29027646.39547 -22611067.75547  22432304.7654   22432315.1294   22432305.567
        47.0004         43.0004
   -245322.75147   -191627.61446  23493727.1724   23493730.8864   23493725.859
        46.0004         41.0004
 15  1 11  0  6  0.0000000  0  7G27G16G14G32G08G22G31
  -4476999.29748  -3471924.36747  22548381.9304   22548395.1084   22548381.659
        48.0004         42.0004
 -18811949.18348 -14644213.45047  20402756.4514   20402760.6024   20402756.517
        53.0004         47.0004
 -15284655.46548 -11906977.73247  21786313.0184   21786318.7434   21786313.189
        49.0004         43.0004
 -15077265.68248 -11729390.12347  21476092.4674   21476097.9824   21476092.896
        51.0004         46.0004
  -9395463.27947  -7308250.55646  23313951.9094   23313956.5984   23313951.619
        45.0004         39.0004
 -28935071.84847 -22538932.21346  22449920.9754   22449931.4444   22449921.351
        47.0004         41.0004
   -217974.44247   -170317.21346  23498930.6544   23498933.9564   23498930.323
        45.0004         40.0004
 15  1 11  0  6 30.0000000  0  7G27G16G14G32G08G22G31
  -4558037.58748  -3535070.92547  22532960.9854   22532974.2294   22532960.334
        48.0004         44.0004
 -18824637.35848 -14654100.28547  20400341.9424   20400346.5494   20400342.141
        53.0004         47.0004
 -15282841.95448 -11905564.63947  21786657.8774   21786663.5124   21786657.626
        49.0004         43.0004
 -15101271.04948 -11748095.59347  21471524.6134   21471530.4994   21471525.120
        52.0004         46.0004
  -9382097.68147  -7297835.73446  23316495.2214   23316499.1984   23316495.513
        45.0004         40.0004
 -28842374.44947 -22466700.92347  22467561.2914   22467572.3074   22467562.228
        47.0004         42.0004
   -190826.98947   -149163.34346  23504097.3274   23504101.1244   23504097.251
        45.0004         41.0004
 15  1 11  0  7  0.0000000  0  7G27G16G14G32G08G22G31
  -4639034.12348  -3598184.94847  22517547.1704   22517560.1184   22517546.665
        48.0004         43.0004
 -18836739.88748 -14663530.77048  20398038.6414   20398042.9664   20398038.785
        53.0004         50.0004
 -15280646.17548 -11903853.68647  21787075.3664   21787081.4834   21787075.765
        49.0004         45.0004
 -15124810.20348 -11766437.77948  21467045.1054   21467051.0854   21467045.645
        52.0004         48.0004
  -9368848.62547  -7287511.74446  23319016.7314   23319020.9624   23319016.706
        45.0004         40.0004
 -28749559.39247 -22394377.97147  22485223.3934   22485235.1434   22485224.258
        47.0004         43.0004
   -163882.60447   -128167.70046  23509225.5494   23509227.3964   23509225.780
        45.0004         41.0004
 15  1 11  0  7 30.0000000  0  7G27G16G14G32G08G22G31
  -4719980.57647  -3661259.95247  22502142.9964   22502155.9604   22502143.266
        47.0004         42.0004
 -18848252.20748 -14672501.35448  20395847.8754   20395852.5684   20395847.963
        52.0004         48.0004
 -15278060.67848 -11901839.04747  21787567.4424   21787574.0524   21787567.129
        48.0004         44.0004
 -15147877.36348 -11784412.17747  21462655.8444   21462661.2704   21462656.420
        51.0004         47.0004
  -9355711.83247  -7277275.23946  23321515.9294   23321520.9474   23321516.573
        44.0004         39.0004
 -28656623.77247 -22321961.06447  22502908.5274   22502919.7034   22502909.578
        46.0004         42.0004
   -137136.54547   -107326.60346  23514312.9334   23514317.5634   23514313.251
        44.0004         39.0004
 15  1 11  0  8  0.0000000  0  7G27G16G14G32G08G22G31
  -4800880.46247  -3724298.66147  22486747.9564   22486762.0304   22486747.890
        47.0004         42.0004
 -18859180.72348 -14681017.03248  20393767.9314   20393773.2114   20393768.339
        52.0004         48.0004
 -15275090.12848 -11899524.37447  21788132.6744   21788138.9694   21788133.370
        48.0004         44.0004
 -15170478.79448 -11802023.67447  21458355.0414   21458360.8064   21458355.378
        51.0004         46.0004
  -9342695.12847  -7267132.29046  23323993.1764   23323998.0124   23323992.544
        44.0004         39.0004
 -28563576.66847 -22249457.29247  22520616.1984   22520627.0094   22520616.386
        46.0004         42.0004
   -110594.61547    -86644.55346  23519364.6464   23519367.6144   23519364.394
        44.0004         39.0004
 15  1 11  0  8 30.0000000  0  7G27G16G14G32G08G22G31
  -4881724.78547  -3787294.06647  22471364.2344   22471377.4444   22471364.015
        47.0004         43.0004
 -18869519.63448 -14689073.27148  20391800.7354   20391805.2854   20391801.259
        52.0004         49.0004
 -15271726.62648 -11896903.50247  21788772.5134   21788779.0364   21788772.640
        48.0004         44.0004
 -15192608.09948 -11819267.27247  21454143.8374   21454149.8254   21454144.053
        51.0004         47.0004
  -9329793.43947  -7257078.97546  23326448.1124   23326453.0104   23326447.824
        44.0004         39.0004
 -28470414.48047 -22176863.84846  22538344.9284   22538355.2714   22538345.416
        46.0004         41.0004
    -84250.50047    -66116.65546  23524377.9394   23524380.5404   23524377.426
        44.0004         40.0004
 15  1 11  0  9  0.0000000  0  7G27G16G14G32G08G22G31
  -4962515.38148  -3850247.62647  22455989.9894   22456003.5664   22455989.877
        48.0004         43.0004
 -18879273.98448 -14696674.00248  20389944.9804   20389949.0344   20389945.098
        53.0004         48.0004
 -15267973.33048 -11893978.89847  21789487.0864   21789493.9974   21789487.305
        49.0004         44.0004
 -15214269.91048 -11836146.59347  21450021.2684   21450027.7674   21450022.220
        52.0004         46.0004
  -9317012.80847  -7247120.00846  23328879.8584   23328884.0264   23328880.022
        45.0004         40.0004
 -28377144.55847 -22104186.44447  22556093.8124   22556104.7244   22556094.526
        47.0004         42.0004
    -58109.03747    -45746.66446  23529353.1284   23529356.8664   23529351.487
        45.0004         41.0004
 15  1 11  0  9 30.0000000  0  7G27G16G14G32G08G22G31
  -5043251.48147  -3913158.71447  22440626.0874   22440639.7444   22440625.820
        47.0004         42.0004
 -18888446.27248 -14703821.18747  20388198.9084   20388204.1124   20388199.156
        52.0004         47.0004
 -15263830.60648 -11890750.85747  21790275.2664   21790282.2364   21790275.777
        48.0004         43.0004
 -15235465.89648 -11852662.93047  21445987.9654   21445993.9334   21445988.256
        50.0004         46.0004
  -9304356.82047  -7237258.15746  23331288.4024   23331293.4444   23331287.852
        44.0004         39.0004
 -28283771.99347 -22031429.06146  22573862.2754   22573873.3894   22573863.016
        46.0004         41.0004
    -32172.07047    -25536.03246  23534288.0754   23534292.2584   23534287.877
        44.0004         39.0004
 15  1 11  0 10  0.0000000  0  7G27G16G14G32G08G22G31
  -5123921.50847  -3976018.30747  22425274.9774   22425288.4944   22425274.706
        47.0004         42.0004
 -18897028.50848 -14710508.59147  20386566.0214   20386570.3364   20386566.354
        52.0004         47.0004
 -15259288.15448 -11887211.32747  21791140.1144   21791146.8414   21791140.288
        48.0004         43.0004
 -15256187.44848 -11868809.58047  21442045.1414   21442051.2544   21442045.235
        50.0004         46.0004
  -9291817.90747  -7227487.53146  23333674.5444   23333679.2254   23333675.879
        44.0004         39.0004
 -28190290.40247 -21958586.70246  22591652.0124   22591662.8584   22591652.603
        46.0004         41.0004
     -6431.34747     -5478.29746  23539186.0924   23539189.4424   23539185.854
        44.0004         39.0004
 15  1 11  0 10 30.0000000  0  7G27G16G14G32G08G22G31
  -5204532.83647  -4038832.18647  22409933.7604   22409947.9174   22409934.068
        47.0004         42.0004
 -18905030.99248 -14716744.23848  20385043.5284   20385047.7554   20385043.743
        52.0004         48.0004
 -15254354.62448 -11883367.06047  21792078.4114   21792085.3064   21792078.286
        48.0004         43.0004
 -15276444.69248 -11884594.42647  21438189.6264   21438195.9424   21438190.733
        51.0004         46.0004
  -9279407.69247  -7217817.20246  23336035.8254   23336039.9904   23336035.715
        44.0004         39.0004
 -28096712.88147 -21885669.60346  22609459.2404   22609470.1494   22609460.497
        46.0004         41.0004
     19103.28647     14418.81846  23544044.4754   23544048.8634   23544044.600
        44.0004         40.0004
 15  1 11  0 11  0.0000000  0  7G27G16G14G32G08G22G31
  -5285064.36247  -4101583.87047  22394610.8024   22394624.0234   22394610.645
        47.0004         43.0004
 -18912436.36548 -14722514.60048  20383633.8034   20383638.2184   20383633.964
        52.0004         48.0004
 -16824430.15048 -13106802.59547  21793095.8814   21793102.5044   21793096.253
        48.0004         43.0004
 -15296219.32448 -11900003.21747  21434426.4964   21434432.5604   21434426.978
        51.0004         46.0004
  -9267109.23847  -7208233.95246  23338376.7024   23338381.5104   23338377.243
        44.0004         39.0004
 -28003023.79047 -21812665.56447  22627287.5224   22627299.5204   22627288.363
        46.0004         42.0004
     44449.93047     34169.45446  23548867.9774   23548871.3404   23548867.275
        44.0004         40.0004
 15  1 11  0 11 30.0000000  0  7G27G16G14G32G08G22G31
  -5365548.36348  -4164298.53247  22379294.9764   22379307.5494   22379294.927
        48.0004         44.0004
 -18919280.23248 -14727847.42948  20382331.6894   20382336.0734   20382331.900
        53.0004         50.0004
 -16818708.54948 -13102344.25347  21794184.8244   21794191.4144   21794184.498
        49.0004         45.0004
 -15315546.45948 -11915063.31348  21430749.1974   21430755.0464   21430749.810
        52.0004         48.0004
  -9254958.95047  -7198766.15146  23340687.9214   23340692.8874   23340687.770
        45.0004         40.0004
 -27909260.98847 -21739604.06247  22645131.4584   22645142.0134   22645131.714
        47.0004         43.0004
     69573.74247     53746.45646  23553648.5514   23553653.3584   23553648.779
        45.0004         41.0004
 15  1 11  0 12  0.0000000  0  7G27G16G14G32G08G22G31
  -5445952.25148  -4226950.76647  22363994.7284   22364007.2724   22363994.489
        48.0004         44.0004
 -18925533.67648 -14732720.18548  20381141.6454   20381145.7334   20381141.841
        53.0004         50.0004
 -16812578.35648 -13097567.54047  21795351.2924   21795358.1594   21795351.546
        49.0004         45.0004
 -15334396.30048 -11929751.49248  21427162.0494   21427167.9734   21427162.718
        51.0004         48.0004
  -9242928.43047  -7189391.69346  23342978.0784   23342982.6104   23342977.579
        45.0004         40.0004
 -27815397.03347 -21666463.75347  22662992.5104   22663004.2784   22662993.645
        46.0004         42.0004
     94504.35247     73172.89846  23558393.7724   23558395.8434   23558393.983
        45.0004         40.0004
 15  1 11  0 12 30.0000000  0  7G27G16G14G32G08G22G31
  -5526281.84348  -4289545.09447  22348708.5244   22348721.0674   22348708.061
        49.0004         44.0004
 -18931205.69448 -14737139.87848  20380062.1384   20380066.4544   20380062.568
        53.0004         48.0004
 -16806046.72548 -13092478.00947  21796594.4094   21796601.2264   21796594.236
        49.0004         44.0004
 -15352777.69948 -11944074.65247  21423664.1794   21423670.0854   21423664.569
        52.0004         47.0004
  -9231027.68047  -7180118.33646  23345241.6114   23345246.3744   23345242.582
        45.0004         40.0004
 -27721443.78947 -21593253.85947  22680871.5984   22680883.3034   22680872.431
        47.0004         42.0004
    119233.15157     92442.11856  23563100.1565   23563102.4645   23563098.427
        45.0004         40.0004
 15  1 11  0 13  0.0000000  0  5G27G16G14G32G08
  -7181936.57448  -5579665.52647  22333440.2114   22333453.0824   22333440.148
        48.0004         42.0004
 -18936279.44148 -14741093.39047  20379096.4274   20379101.0284   20379096.079
        52.0004         46.0004
 -16799094.65348 -13087060.87147  21797917.5184   21797923.8644   21797916.874
        48.0004         42.0004
 -15370672.88548 -11958018.95947  21420259.1034   21420264.6564   21420259.894
        51.0004         45.0004
 -10794660.49357  -8398533.47856  23347486.1435   23347489.9685   23347485.739
        44.0004         38.0004
 15  1 11  0 13 30.0000000  0  7G27G16G14G32G08G22G31
  -7262112.94148  -5642140.46047  22318182.4184   22318195.1134   22318182.497
        48.0004         43.0004
 -18940794.73948 -14744611.74548  20378237.4824   20378241.3364   20378237.786
        52.0004         49.0004
 -18367179.56148 -14308945.26547  21799312.5164   21799319.2034   21799313.040
        48.0004         44.0004
 -15388121.38648 -11971615.18848  21416938.7154   21416944.5414   21416938.939
        51.0004         48.0004
 -10783027.84847  -8389469.03946  23349698.3974   23349703.7724   23349699.255
        44.0004         39.0004
 -29108685.58247 -22674222.32846  22716681.5844   22716694.1464   22716682.101
        46.0004         41.0004
  -1407320.12447  -1097079.87946  23572398.5364   23572401.5494   23572397.105
        44.0004         40.0004
 15  1 11  0 14  0.0000000  0  7G27G16G14G32G08G22G31
  -7342206.21048  -5704550.64547  22302941.9534   22302954.1404   22302942.128
        48.0004         44.0004
 -18944730.64348 -14747678.62947  20377488.1044   20377492.3104   20377488.242
        53.0004         46.0004
 -18359438.58948 -14302913.40547  21800786.4254   21800792.7164   21800786.488
        48.0004         43.0004
 -15405101.34948 -11984846.33547  21413707.3224   21413713.2654   21413707.701
        52.0004         45.0004
 -10771528.54347  -8380508.49146  23351886.8204   23351892.3074   23351887.050
        44.0004         39.0004
 -29014483.56547 -22600818.54747  22734607.5724   22734619.8914   22734608.226
        46.0004         42.0004
  -1383199.52547  -1078284.60246  23576988.5584   23576991.4164   23576988.194
        45.0004         40.0004
 15  1 11  0 14 30.0000000  0  7G27G16G14G32G08G22G31
  -7422211.86848  -5766892.57547  22287716.1934   22287728.8354   22287716.178
        48.0004         44.0004
 -18948086.44748 -14750293.47548  20376849.4984   20376854.2504   20376849.480
        53.0004         49.0004
 -18351288.53148 -14296562.77047  21802336.4834   21802343.8204   21802336.113
        48.0004         44.0004
 -15421611.37048 -11997711.28548  21410565.7644   21410570.7804   21410565.932
        52.0004         48.0004
 -10760162.47147  -8371651.77946  23354049.6794   23354054.1014   23354050.231
        44.0004         40.0004
 -28920200.70547 -22527351.77347  22752549.4044   22752562.6574   22752549.592
        46.0004         42.0004
  -1359278.39047  -1059644.72346  23581540.7364   23581543.8284   23581539.602
        45.0004         41.0004
 15  1 11  0 15  0.0000000  0  7G27G16G14G32G08G22G31
  -7502124.42248  -5829161.93147  22272509.6794   22272522.7844   22272510.094
        49.0004         44.0004
 -18950860.03649 -14752454.65548  20376321.7834   20376326.2754   20376322.169
        54.0004         48.0004
 -18342725.42548 -14289890.29147  21803966.7514   21803973.0734   21803966.751
        49.0004         43.0004
 -15437648.89848 -12010208.06647  21407514.0734   21407520.0464   21407513.836
        52.0004         46.0004
 -10748928.05947  -8362897.66246  23356187.0824   23356192.0894   23356187.501
        45.0004         40.0004
 -28825837.06847 -22453822.03847  22770507.2804   22770519.9694   22770507.691
        47.0004         42.0004
  -1335553.91357  -1041158.11256  23586055.5945   23586058.2085   23586054.817
        46.0004         41.0004
 15  1 11  0 15 30.0000000  0  7G27G16G14G32G08G22G31
  -7581947.69348  -5891361.73147  22257319.8464   22257332.0224   22257320.166
        49.0004         44.0004
 -18953059.23048 -14754168.25648  20375903.7604   20375907.8194   20375903.775
        53.0004         49.0004
 -18333754.51448 -14282900.01947  21805673.5534   21805680.5984   21805674.192
        49.0004         44.0004
 -15453220.85548 -12022342.06047  21404549.9374   21404556.3064   21404551.211
        52.0004         47.0004
 -10737833.31747  -8354252.35846  23358298.7164   23358304.8924   23358298.877
        45.0004         40.0004
 -28731402.12047 -22380236.72847  22788477.6964   22788489.8134   22788477.482
        47.0004         42.0004
  -1312032.78147  -1022829.94846  23590530.1474   23590533.8994   23590530.163
        45.0004         40.0004
 15  1 11  0 16  0.0000000  0  7G27G16G14G32G08G22G31
  -7661673.97048  -5953485.94847  22242148.8404   22242161.0214   22242148.187
        48.0004         44.0004
 -18954679.96048 -14755431.11248  20375595.1444   20375598.9434   20375594.930
        52.0004         48.0004
 -18324369.39748 -14275587.00847  21807459.9624   21807466.7104   21807460.127
        48.0004         43.0004
 -15468322.59748 -12034109.65447  21401676.9944   21401682.5114   21401677.385
        51.0004         47.0004
 -10726874.81447  -8345713.20746  23360384.0464   23360387.1834   23360384.057
        44.0004         39.0004
 -28636893.81347 -22306594.25846  22806461.6804   22806474.8454   22806462.332
        46.0004         41.0004
  -1288710.01047  -1004656.35346  23594969.7824   23594972.0854   23594969.628
        45.0004         40.0004
 15  1 11  0 16 30.0000000  0  7G27G16G14G32G08G22G31
  -7741301.88248  -6015533.50347  22226995.6054   22227007.4874   22226994.976
        48.0004         42.0004
 -18955724.18748 -14756244.73247  20375396.5124   20375400.1794   20375396.340
        52.0004         46.0004
 -18314570.68848 -14267951.70746  21809324.3264   21809331.7134   21809324.041
        48.0004         41.0004
 -15482955.83548 -12045512.18047  21398892.6554   21398897.8464   21398892.695
        51.0004         44.0004
 -10716055.26047  -8337282.33846  23362442.3154   23362447.9504   23362442.779
        44.0004         38.0004
 -28542316.13347 -22232897.70646  22824459.5604   22824471.7794   22824460.274
        45.0004         40.0004
  -1265586.93447   -986638.36046  23599368.9964   23599372.1094   23599369.353
        45.0004         39.0004
 15  1 11  0 17  0.0000000  0  7G27G16G14G32G08G22G31
  -7820831.59747  -6077504.54347  22211861.2584   22211873.7024   22211860.836
        47.0004         42.0004
 -18956196.41048 -14756612.65448  20375306.2764   20375310.4794   20375306.445
        52.0004         48.0004
 -18304359.64347 -14259995.11747  21811267.5724   21811274.1304   21811268.254
        47.0004         42.0004
 -15497123.90248 -12056552.23847  21396195.9784   21396201.1464   21396196.744
        51.0004         46.0004
 -10705378.97647  -8328963.12046  23364474.6094   23364478.5024   23364474.810
        43.0004         38.0004
 -28447674.90047 -22159151.62246  22842469.7404   22842482.9854   22842470.001
        45.0004         40.0004
  -1242666.34347   -968778.16046  23603732.1054   23603734.3324   23603731.470
        44.0004         39.0004
 15  1 11  0 17 30.0000000  0  7G27G16G14G32G08G22G31
  -7900260.23648  -6139396.81747  22196746.7534   22196758.5354   22196746.628
        49.0004         45.0004
 -18956097.78848 -14756535.75148  20375325.0314   20375329.1054   20375324.995
        53.0004         50.0004
 -18293735.44148 -14251716.58247  21813288.9434   21813295.8494   21813289.278
        49.0004         45.0004
 -15510827.05248 -12067230.01448  21393588.1634   21393594.2044   21393588.579
        52.0004         49.0004
 -10694846.98647  -8320756.33846  23366477.8294   23366483.2044   23366478.558
        45.0004         41.0004
 -28352972.56447 -22085357.90247  22860491.3374   22860503.8314   22860492.119
        46.0004         42.0004
  -1219948.28847   -951075.75547  23608054.0454   23608056.8574   23608054.696
        46.0004         42.0004
 15  1 11  0 18  0.0000000  0  7G27G16G14G32G08G22G31
  -7979577.72548  -6201202.48247  22181652.6724   22181664.3284   22181652.955
        49.0004         43.0004
 -18955421.54648 -14756008.75748  20375453.3804   20375457.9214   20375453.634
        53.0004         48.0004
 -18282689.38648 -14243109.33847  21815391.2994   21815397.7694   21815391.932
        48.0004         43.0004
 -15524058.43848 -12077540.18347  21391070.3724   21391076.4974   21391070.699
        52.0004         47.0004
 -10684453.52947  -8312657.47046  23368456.3734   23368460.8794   23368456.621
        44.0004         39.0004
 -28258204.66347 -22011513.07146  22878525.0864   22878537.1044   22878525.711
        46.0004         41.0004
  -1197425.36847   -933525.41846  23612340.2224   23612344.2354   23612339.324
        46.0004         40.0004
 15  1 11  0 18 30.0000000  0  7G27G16G14G32G08G22G31
  -8058789.80548  -6262926.01147  22166578.7724   22166591.2664   22166578.478
        49.0004         45.0004
 -18954177.54348 -14755039.36448  20375689.9574   20375694.7684   20375690.368
        53.0004         50.0004
 -18271229.04448 -14234179.27347  21817572.2034   21817579.0794   21817572.366
        48.0004         45.0004
 -15536827.02248 -12087489.73248  21388640.9974   21388646.3034   21388641.951
        52.0004         48.0004
 -10674208.41147  -8304674.20946  23370405.5694   23370410.3884   23370405.757
        44.0004         40.0004
 -28163382.61247 -21937626.03547  22896569.6564   22896581.5144   22896570.822
        46.0004         42.0004
  -1175105.77247   -916133.49846  23616587.5164   23616590.9914   23616587.142
        45.0004         41.0004
 15  1 11  0 19  0.0000000  0  7G27G16G14G32G08G22G31
  -8137886.87448  -6324559.91647  22151526.7794   22151539.3164   22151526.572
        50.0004         45.0004
 -18952360.41849 -14753623.37448  20376036.2434   20376040.5404   20376036.312
        54.0004         50.0004
 -18259346.25448 -14224920.03547  21819833.3394   21819840.6494   21819833.497
        50.0004         45.0004
 -15549126.43948 -12097073.69648  21386300.5654   21386306.0554   21386300.947
        53.0004         48.0004
 -10664106.12247  -8296802.27146  23372327.7124   23372332.3414   23372328.622
        45.0004         40.0004
 -28068502.29247 -21863693.58647  22914624.4994   22914636.8524   22914625.488
        47.0004         43.0004
  -1152982.77447   -898894.77347  23620797.5064   23620799.8484   23620796.259
        47.0004         42.0004
 15  1 11  0 19 30.0000000  0  7G27G16G14G32G08G22G31
  -8216875.09948  -6386109.00247  22136496.0934   22136507.8084   22136495.845
        50.0004         47.0004
 -18949980.01949 -14751768.47548  20376488.7494   20376493.2224   20376488.909
        55.0004         51.0004
 -18247048.95948 -14215337.80147  21822173.5664   21822180.2174   21822173.735
        50.0004         46.0004
 -15560966.17748 -12106299.47448  21384047.6924   21384053.0134   21384047.695
        53.0004         49.0004
 -10654157.09147  -8289049.72346  23374221.4124   23374226.3134   23374221.887
        46.0004         41.0004
 -27973575.38548 -21789724.81547  22932688.7554   22932701.5234   22932689.190
        48.0004         43.0004
  -1131065.45347   -881816.32047  23624968.2464   23624970.6084   23624968.252
        47.0004         42.0004
 15  1 11  0 20  0.0000000  0  7G27G16G14G32G08G22G31
  -8295739.54848  -6447561.64447  22121488.2004   22121500.7574   22121487.879
        51.0004         47.0004
 -18947025.37949 -14749466.12148  20377050.8344   20377055.3064   20377051.237
        55.0004         51.0004
 -18234323.88448 -14205422.23747  21824595.2724   21824602.3244   21824595.045
        51.0004         46.0004
 -15572334.53049 -12115157.94148  21381884.2804   21381889.6304   21381884.301
        54.0004         49.0004
 -10644350.52147  -8281408.18347  23376088.4134   23376092.6874   23376088.587
        47.0004         42.0004
 -27878592.33248 -21715712.28347  22950763.8164   22950776.9784   22950764.453
        48.0004         44.0004
  -1109341.12047   -864888.24247  23629102.2704   23629103.4474   23629101.830
        47.0004         43.0004
 15  1 11  0 20 30.0000000  0  7G27G16G14G32G08G22G31
  -8374486.30648  -6508922.58547  22106503.3774   22106515.5184   22106503.402
        51.0004         47.0004
 -18943506.74549 -14746724.28748  20377720.5614   20377724.9864   20377720.765
        55.0004         51.0004
 -18221178.63248 -14195179.25947  21827096.9474   21827103.2014   21827097.210
        51.0004         46.0004
 -15583240.86949 -12123656.40848  21379808.6674   21379814.6904   21379809.368
        54.0004         50.0004
 -10634696.23147  -8273885.31747  23377925.0484   23377929.6084   23377924.609
        46.0004         42.0004
 -27783564.82648 -21641665.05947  22968847.3144   22968858.8014   22968846.729
        48.0004         43.0004
  -1087818.60347   -848117.43147  23633196.8224   23633200.7554   23633197.200
        47.0004         43.0004
 15  1 11  0 21  0.0000000  0  7G27G16G14G32G08G22G31
  -8453107.37848  -6570185.58047  22091541.9454   22091554.0134   22091541.377
        51.0004         47.0004
 -18939420.36649 -14743540.05748  20378497.9934   20378502.5624   20378498.743
        55.0004         51.0004
 -18207606.99848 -14184604.03747  21829679.5044   21829686.2554   21829679.498
        51.0004         46.0004
 -15593680.63049 -12131791.29448  21377821.6794   21377827.7104   21377822.662
        54.0004         50.0004
 -10625190.29847  -8266478.05347  23379734.0504   23379737.3014   23379734.073
        46.0004         42.0004
 -27688490.33348 -21567581.21147  22986937.9524   22986952.5134   22986939.544
        48.0004         43.0004
  -1066492.95047   -831500.01147  23637255.2714   23637258.5074   23637254.902
        47.0004         43.0004
 15  1 11  0 21 30.0000000  0  7G27G16G14G32G08G22G31
  -8531604.38548  -6631351.89247  22076604.1284   22076616.7854   22076604.030
        52.0004         47.0004
 -18934771.63249 -14739917.62348  20379382.7644   20379387.2434   20379382.774
        55.0004         51.0004
 -18193612.78148 -14173699.53447  21832341.7484   21832349.0954   21832342.438
        51.0004         46.0004
 -15603658.74149 -12139566.46648  21375923.2324   21375928.9594   21375923.752
        54.0004         50.0004
 -10615838.66847  -8259191.02447  23381513.4624   23381517.4424   23381513.332
        46.0004         42.0004
 -27593375.92848 -21493466.24547  23005039.5374   23005050.8904   23005040.026
        48.0004         43.0004
  -1045368.10647   -815039.09147  23641275.6564   23641279.2094   23641275.285
        47.0004         43.0004
 15  1 11  0 22  0.0000000  0  7G27G16G14G32G08G22G31
  -8609971.54348  -6692417.00247  22061691.5534   22061703.5304   22061691.210
        51.0004         47.0004
 -18929558.63549 -14735855.51448  20380374.6384   20380379.0524   20380375.152
        55.0004         51.0004
 -18179191.71048 -14162462.40747  21835086.6534   21835093.1444   21835087.624
        51.0004         46.0004
 -15613172.96649 -12146980.16848  21374112.6574   21374118.4604   21374113.447
        54.0004         50.0004
 -10606639.52747  -8252022.80547  23383264.4474   23383268.6934   23383264.240
        47.0004         42.0004
 -27498221.57248 -21419320.11047  23023144.7374   23023158.5304   23023145.913
        48.0004         43.0004
  -1024441.00647   -798732.23547  23645258.3724   23645259.5454   23645257.660
        47.0004         42.0004
 15  1 11  0 22 30.0000000  0  7G27G16G14G32G08G22G31
  -8688208.79748  -6753380.92847  22046803.6004   22046815.3124   22046803.604
        52.0004         47.0004
 -18923786.28349 -14731357.53548  20381473.2044   20381477.4064   20381473.226
        55.0004         51.0004
 -18164345.68248 -14150894.15247  21837912.5824   21837918.4624   21837912.187
        50.0004         46.0004
 -15622226.47149 -12154034.87148  21372390.0384   21372395.8664   21372390.236
        54.0004         49.0004
 -10597596.77447  -8244976.47447  23384984.9754   23384989.8274   23384985.180
        47.0004         42.0004
 -27403032.66447 -21345147.01947  23041258.9104   23041272.0554   23041259.831
        47.0004         43.0004
  -1003714.24747   -782581.50347  23649200.2964   23649205.2564   23649199.272
        47.0004         42.0004
 15  1 11  0 23  0.0000000  0  7G27G16G14G32G08G22G31
  -8766306.18048  -6814235.85447  22031942.0194   22031953.2744   22031941.208
        52.0004         47.0004
 -18917448.21149 -14726418.74148  20382678.8884   20382683.4864   20382679.413
        55.0004         51.0004
 -18149066.45948 -14138988.33647  21840819.6404   21840825.9494   21840819.474
        50.0004         46.0004
 -15630812.81449 -12160725.54348  21370755.9824   21370761.6934   21370756.389
        54.0004         50.0004
 -10588704.73547  -8238047.56447  23386676.3224   23386681.1294   23386678.107
        47.0004         42.0004
 -27307804.69847 -21270943.46347  23059381.1524   23059395.3434   23059381.881
        47.0004         43.0004
   -983180.44447   -766581.10947  23653108.9444   23653113.0624   23653108.250
        47.0004         42.0004
 15  1 11  0 23 30.0000000  0  8G27G16G14G19G32G08G22G31
  -8844269.81648  -6874986.56847  22017104.9194   22017117.3734   22017104.796
        52.0004         47.0004
 -18910555.09449 -14721047.44748  20383991.2214   20383995.3074   20383991.186
        55.0004         51.0004
 -18133362.12048 -14126751.26647  21843807.5534   21843814.7484   21843807.956
        50.0004         46.0004
                                                                  24318852.816

 -15638941.60549 -12167059.69348  21369209.1834   21369215.2884   21369209.614
        54.0004         49.0004
 -10579973.41047  -8231243.90147  23388338.2714   23388342.7394   23388338.065
        47.0004         42.0004
 -27212549.44748 -21196718.63747  23077507.7854   23077521.3564   23077509.055
        48.0004         43.0004
   -962848.52347   -750738.04847  23656977.7524   23656982.0784   23656977.932
        47.0004         43.0004
 15  1 11  0 24  0.0000000  0  7G27G16G14G32G08G22G31
  -8922093.02148  -6935627.85447  22002296.2124   22002307.7514   22002295.648
        52.0004         47.0004
 -18903104.08749 -14715241.43348  20385408.6974   20385413.0454   20385408.940
        55.0004         51.0004
 -18117227.94748 -14114179.26947  21846879.0304   21846885.3934   21846878.869
        50.0004         46.0004
 -15646609.62549 -12173034.78248  21367750.2164   21367755.4974   21367750.568
        54.0004         49.0004
 -10571400.36747  -8224563.57747  23389969.3054   23389973.9474   23389969.970
        47.0004         42.0004
 -27117265.38448 -21122471.33047  23095640.2984   23095652.7704   23095640.444
        48.0004         43.0004
   -942714.20947   -735048.96347  23660808.6994   23660812.6664   23660809.597
        47.0004         43.0004
 15  1 11  0 24 30.0000000  0  8G27G16G14G19G32G08G22G31
  -8999776.57848  -6996160.31247  21987513.2354   21987525.1724   21987512.800
        52.0004         47.0004
 -18895100.67749 -14709004.97348  20386931.9034   20386935.9114   20386932.132
        55.0004         51.0004
 -18100666.74748 -14101274.52047  21850029.6564   21850037.1684   21850029.741
        50.0004         45.0004
  -1448244.20248   -874515.20846  24283480.9374   24283495.1834   24283481.949
        50.0004         37.0004
 -15653821.15649 -12178654.17248  21366377.9034   21366383.4284   21366378.358
        54.0004         49.0004
 -10562990.16847  -8218010.13447  23391569.4244   23391574.8424   23391570.897
        47.0004         43.0004
 -27021958.99247 -21048206.59847  23113775.5084   23113787.7144   23113776.755
        47.0004         43.0004
   -922780.82047   -719516.43747  23664603.2394   23664605.1034   23664602.677
        47.0004         43.0004
 15  1 11  0 25  0.0000000  0  8G27G16G14G19G32G08G22G31
  -9077304.03048  -7056571.14647  21972760.4224   21972772.0444   21972760.007
        52.0004         47.0004
 -18886532.61449 -14702328.51748  20388562.3294   20388566.2594   20388562.297
        55.0004         51.0004
 -18083663.51048 -14088025.32747  21853265.2334   21853271.5854   21853265.585
        50.0004         45.0004
  -1541389.00447   -947095.56946  24265755.3224   24265771.1214   24265756.784
        45.0004         37.0004
 -15660563.44149 -12183907.91448  21365094.6874   21365100.0614   21365094.983
        54.0004         49.0004
 -10554730.38447  -8211573.90947  23393141.5534   23393145.2834   23393141.653
        47.0004         42.0004
 -26926619.42748 -20973915.99547  23131919.0594   23131930.3074   23131919.353
        48.0004         43.0004
   -903034.64747   -704129.79747  23668360.1464   23668362.9964   23668360.182
        47.0004         43.0004
 15  1 11  0 25 30.0000000  0  8G27G16G14G19G32G08G22G31
  -9154685.36448  -7116868.12748  21958035.2524   21958046.8224   21958034.855
        52.0004         48.0004
 -18877414.03349 -14695223.09248  20390297.2034   20390301.6814   20390297.235
        55.0004         51.0004
 -18066230.21048 -14074441.03247  21856582.8764   21856589.8564   21856583.765
        50.0004         45.0004
  -1634679.49347  -1019789.40646  24248004.7304   24248018.1154   24248004.150
        43.0004         38.0004
 -15666849.87549 -12188806.45348  21363898.3684   21363904.4844   21363898.752
        54.0004         49.0004
 -10546634.96047  -8205265.73847  23394682.6144   23394685.9504   23394682.554
        47.0004         42.0004
 -26831262.04448 -20899611.47847  23150065.1314   23150077.2574   23150064.557
        48.0004         43.0004
   -883488.24848   -688898.85047  23672080.3964   23672084.1154   23672079.721
        48.0004         43.0004
 15  1 11  0 26  0.0000000  0  8G27G16G14G19G32G08G22G31
  -9231913.68448  -7177045.86847  21943338.5774   21943350.5634   21943338.405
        52.0004         47.0004
 -18867742.52049 -14687686.81948  20392137.4464   20392141.9174   20392137.831
        55.0004         51.0004
 -18048362.26248 -14060518.03547  21859983.5654   21859990.0454   21859984.102
        50.0004         45.0004
  -1728109.26347  -1092591.79146  24230222.9274   24230236.9634   24230223.005
        42.0004         37.0004
 -15672677.26249 -12193347.28748  21362789.5824   21362795.4624   21362789.565
        54.0004         49.0004
 -10538701.03947  -8199083.43247  23396191.0774   23396195.2514   23396193.103
        47.0004         42.0004
 -26735885.35147 -20825291.89947  23168213.4714   23168226.4534   23168213.985
        47.0004         43.0004
   -864137.38948   -673820.24347  23675763.2054   23675765.5384   23675762.393
        48.0004         43.0004
 15  1 11  0 26 30.0000000  0  8G27G16G14G19G32G08G22G31
  -9308984.54948  -7237100.92747  21928672.5024   21928684.3394   21928672.245
        52.0004         47.0004
 -18857518.32649 -14679719.87548  20394083.3544   20394087.5834   20394083.748
        55.0004         51.0004
 -18030057.10348 -14046254.35347  21863467.1094   21863472.7104   21863466.961
        50.0004         45.0004
  -1821674.72046  -1165499.91746  24212416.7064   24212433.0074   24212420.576
        41.0004         36.0004
 -15678044.70349 -12197529.72948  21361768.1844   21361773.6804   21361768.714
        54.0004         49.0004
 -10530928.38947  -8193026.78647  23397671.7384   23397675.2084   23397670.875
        47.0004         42.0004
 -26640490.39147 -20750958.03847  23186367.5934   23186379.9274   23186368.238
        47.0004         43.0004
   -844980.09247   -658892.45847  23679407.3704   23679410.6174   23679407.266
        47.0004         42.0004
 15  1 11  0 27  0.0000000  0  8G27G16G14G19G32G08G22G31
  -9385897.59948  -7297033.01748  21914036.0124   21914048.1634   21914035.593
        52.0004         48.0004
 -18846745.29349 -14671325.27248  20396133.3874   20396137.6524   20396133.637
        55.0004         51.0004
 -18011316.52048 -14031651.39647  21867033.1004   21867040.1054   21867033.425
        50.0004         45.0004
  -1915376.84946  -1238514.53946  24194588.6704   24194600.8764   24194589.813
        41.0004         37.0004
 -15682955.51349 -12201356.35548  21360833.6264   21360839.3554   21360834.032
        54.0004         49.0004
 -10523320.75547  -8187098.73047  23399119.5594   23399122.2014   23399119.443
        47.0004         42.0004
 -26545082.49047 -20676614.09847  23204521.5024   23204536.2034   23204521.979
        47.0004         43.0004
   -826018.66347   -644117.32247  23683016.3924   23683019.2614   23683016.366
        47.0004         43.0004
 15  1 11  0 27 30.0000000  0  8G27G16G14G19G32G08G22G31
  -9462650.37348  -7356840.20748  21899430.4214   21899442.3974   21899430.247
        52.0004         48.0004
 -18835425.43149 -14662504.56248  20398287.3844   20398291.4854   20398287.733
        55.0004         51.0004
 -17992140.09148 -14016708.82047  21870682.2704   21870688.9554   21870682.819
        50.0004         46.0004
  -2009213.32647  -1311633.85446  24176731.8424   24176744.0044   24176733.800
        42.0004         37.0004
 -15687410.94849 -12204828.13748  21359985.6134   21359991.6624   21359986.309
        54.0004         49.0004
 -10515879.45647  -8181300.26347  23400534.7024   23400539.7054   23400533.771
        47.0004         42.0004
 -26449664.76947 -20602262.50347  23222679.7744   23222691.3034   23222681.018
        47.0004         43.0004
   -807253.19647   -629494.87547  23686585.6824   23686589.7314   23686586.117
        47.0004         42.0004
 15  1 11  0 28  0.0000000  0  8G27G16G14G19G32G08G22G31
  -9539236.58948  -7416517.62648  21884856.7144   21884868.2094   21884856.641
        52.0004         48.0004
 -18823556.86849 -14653256.29048  20400545.7894   20400550.1054   20400545.967
        55.0004         51.0004
 -17972523.47648 -14001423.23147  21874415.2134   21874422.4094   21874415.815
        50.0004         46.0004
  -2103178.84147  -1384853.72546  24158849.8994   24158864.6754   24158851.128
        43.0004         38.0004
 -15691408.40049 -12207943.04548  21359225.3074   21359230.9304   21359225.625
        54.0004         49.0004
 -10508602.00047  -8175629.51147  23401919.7414   23401923.7954   23401919.868
        47.0004         42.0004
 -26354235.97747 -20527902.25647  23240839.8774   23240852.2494   23240839.595
        47.0004         43.0004
   -788679.90247   -615022.18547  23690120.6414   23690125.0284   23690120.697
        46.0004         42.0004
 15  1 11  0 28 30.0000000  0  8G27G16G14G19G32G08G22G31
  -9615656.85948  -7476065.72948  21870314.2454   21870325.5584   21870314.210
        53.0004         48.0004
 -18811144.79149 -14643584.50748  20402908.0104   20402911.9274   20402908.118
        55.0004         51.0004
 -17952469.61248 -13985796.93247  21878231.2284   21878238.9504   21878231.806
        50.0004         46.0004
  -2197274.70647  -1458175.19946  24140946.0044   24140959.2814   24140945.807
        44.0004         39.0004
 -15694952.14449 -12210704.42748  21358550.8504   21358556.3684   21358551.358
        54.0004         49.0004
 -10501493.06247  -8170090.04247  23403271.8634   23403276.8704   23403272.584
        47.0004         42.0004
 -26258802.56647 -20453538.38147  23258999.2384   23259012.4754   23258999.942
        47.0004         43.0004
   -770301.88347   -600701.66347  23693619.0174   23693621.2734   23693617.976
        47.0004         42.0004
 15  1 11  0 29  0.0000000  0  8G27G16G14G19G32G08G22G31
  -9691905.37948  -7535480.00648  21855804.0014   21855816.0414   21855803.850
        53.0004         48.0004
 -18798187.66949 -14633488.01248  20405373.5224   20405377.3674   20405373.655
        55.0004         51.0004
 -17931974.55248 -13969826.85147  21882131.1404   21882139.1354   21882132.035
        50.0004         46.0004
  -2291496.06547  -1531594.43846  24123015.2524   24123029.7074   24123015.843
        44.0004         40.0004
 -15698040.19149 -12213110.71948  21357963.1064   21357968.9554   21357963.464
        54.0004         49.0004
 -10494550.90147  -8164680.52947  23404593.1664   23404597.0704   23404592.563
        46.0004         42.0004
 -26163364.01747 -20379170.50847  23277160.0464   23277173.9524   23277162.043
        47.0004         43.0004
   -752115.91947   -586530.77847  23697079.3734   23697082.9084   23697078.515
        47.0004         42.0004
 15  1 11  0 29 30.0000000  0  8G27G16G14G19G32G08G22G31
  -9767979.18548  -7594758.14448  21841328.5124   21841339.3924   21841328.110
        53.0004         48.0004
 -18784687.65349 -14622968.47948  20407941.9194   20407946.5144   20407942.435
        55.0004         51.0004
 -17911037.57948 -13953512.42447  21886116.3484   21886122.9404   21886115.673
        50.0004         46.0004
  -2385840.60547  -1605109.67146  24105062.4574   24105076.7684   24105062.639
        45.0004         40.0004
 -15700673.23749 -12215162.46048  21357462.2744   21357467.5904   21357463.190
        54.0004         49.0004
 -10487776.50147  -8159401.72347  23405881.9814   23405886.8244   23405883.330
        46.0004         42.0004
 -26067922.75847 -20304800.48947  23295321.4954   23295336.0334   23295322.154
        47.0004         42.0004
   -734121.48347   -572509.17247  23700503.8384   23700507.1754   23700504.108
        47.0004         42.0004
 15  1 11  0 30  0.0000000  0  8G27G16G14G19G32G08G22G31
  -9843879.05148  -7653900.73548  21826884.7564   21826896.4504   21826884.396
        53.0004         48.0004
 -18770649.82549 -14612029.86948  20410613.7594   20410617.4354   20410614.069
        55.0004         51.0004
 -17889661.85248 -13936856.10347  21890183.2584   21890190.5124   21890183.462
        50.0004         45.0004
  -2480309.89447  -1678722.09546  24087084.8694   24087099.3934   24087084.922
        45.0004         40.0004
 -15702855.89149 -12216863.25348  21357046.7864   21357052.4504   21357047.151
        54.0004         49.0004
 -10481174.61547  -8154257.38047  23407138.4774   23407144.7124   23407138.836
        46.0004         42.0004
 -25972485.22547 -20230433.36347  23313482.8284   23313495.2984   23313483.423
        47.0004         42.0004
   -716321.94447   -558639.41047  23703890.9384   23703893.7384   23703890.451
        47.0004         43.0004
 15  1 11  0 30 30.0000000  0  8G27G16G14G19G32G08G22G31
  -9919597.24548  -7712901.77348  21812476.4444   21812487.2174   21812476.074
        53.0004         48.0004
 -18756070.98749 -14600669.69948  20413388.0544   20413392.1694   20413388.401
        55.0004         51.0004
 -17867841.47348 -13919853.30347  21894336.5994   21894342.7444   21894336.572
        50.0004         46.0004
  -2574896.90947  -1752426.26846  24069085.7034   24069099.5384   24069085.948
        45.0004         40.0004
 -15704584.30749 -12218210.08848  21356717.9174   21356723.6214   21356718.111
        54.0004         49.0004
 -10474741.34147  -8149244.41746  23408362.8344   23408367.0134   23408362.268
        46.0004         41.0004
 -25877048.95547 -20156067.19347  23331643.3804   23331657.3894   23331644.874
        47.0004         42.0004
   -698711.89347   -544917.30947  23707241.6854   23707244.4764   23707241.642
        47.0004         42.0004
 15  1 11  0 31  0.0000000  0  8G27G16G14G19G32G08G22G31
  -9995135.96548  -7771762.95148  21798101.3704   21798112.0924   21798101.306
        53.0004         48.0004
 -18740957.84849 -14588893.19248  20416263.9844   20416267.6364   20416264.118
        55.0004         51.0004
 -17845581.26248 -13902507.78047  21898572.1654   21898578.6224   21898572.619
        50.0004         46.0004
  -2669604.48647  -1826224.37446  24051063.0224   24051077.4974   24051064.577
        45.0004         40.0004
 -15705864.45449 -12219207.63348  21356474.5524   21356479.8154   21356474.509
        54.0004         49.0004
 -10468482.68447  -8144367.49046  23409551.9864   23409557.7384   23409552.587
        46.0004         41.0004
 -25781621.84047 -20081708.17447  23349802.6634   23349816.2274   23349803.918
        47.0004         42.0004
   -681296.38247   -531346.78147  23710556.5534   23710558.6804   23710556.500
        47.0004         43.0004
 15  1 11  0 31 30.0000000  0  8G27G16G14G19G32G08G22G31
 -10070485.01848  -7830476.34948  21783762.6434   21783773.8124   21783762.381
        53.0004         48.0004
 -18725305.53749 -14576696.55548  20419242.3164   20419246.3874   20419242.849
        55.0004         51.0004
 -17822873.05848 -13884813.17147  21902893.1224   21902900.8354   21902893.357
        50.0004         45.0004
  -2764423.37447  -1900109.16846  24033020.1974   24033034.9294   24033021.731
        45.0004         41.0004
 -15706689.98349 -12219850.92948  21356317.2044   21356323.0464   21356317.574
        54.0004         49.0004
 -10462392.21047  -8139621.63047  23410712.8094   23410717.1784   23410713.529
        46.0004         42.0004
 -25686198.88047 -20007352.36447  23367961.5534   23367975.0364   23367963.180
        47.0004         42.0004
   -664067.50048   -517921.70047  23713835.0554   23713836.4054   23713834.206
        48.0004         43.0004
 15  1 11  0 32  0.0000000  0  8G27G16G14G19G32G08G22G31
 -10145648.65548  -7889045.24648  21769459.4394   21769470.6964   21769459.251
        53.0004         48.0004
 -18709122.55149 -14564086.40648  20422322.0274   20422325.7554   20422322.020
        55.0004         51.0004
 -17799723.20648 -13866774.42847  21907298.2174   21907305.5944   21907299.255
        50.0004         45.0004
  -2859358.32847  -1974084.42046  24014955.4584   24014968.9944   24014956.481
        46.0004         41.0004
 -15707069.02949 -12220146.31048  21356244.9604   21356251.0204   21356245.356
        54.0004         49.0004
 -10456478.29447  -8135013.34346  23411838.3684   23411842.4794   23411838.662
        46.0004         41.0004
 -25590789.77447 -19933007.35247  23386116.6424   23386129.2664   23386118.684
        47.0004         43.0004
   -647031.83748   -504647.17347  23717076.3134   23717078.9274   23717075.430
        48.0004         43.0004
 15  1 11  0 32 30.0000000  0  8G27G16G14G19G32G08G22G31
 -10220619.84948  -7947464.20148  21755192.4404   21755203.8834   21755192.719
        53.0004         48.0004
 -18692406.36149 -14551060.77048  20425503.0724   20425506.8204   20425503.445
        55.0004         51.0004
 -17776127.09348 -13848387.94647  21911789.7434   21911796.1984   21911789.904
        50.0004         45.0004
  -2954403.01847  -2048145.20647  23996867.9194   23996882.8424   23996867.827
        47.0004         42.0004
 -15706998.36649 -12220091.26448  21356258.5714   21356264.2024   21356259.034
        54.0004         49.0004
 -10450737.98947  -8130540.35946  23412929.8334   23412935.0114   23412930.825
        46.0004         41.0004
 -25495392.94847 -19858671.87847  23404270.0294   23404282.5984   23404270.598
        47.0004         42.0004
   -630185.01548   -491519.79647  23720282.7814   23720286.2514   23720282.399
        48.0004         43.0004
 15  1 11  0 33  0.0000000  0  8G27G16G14G19G32G08G22G31
 -10295396.41148  -8005731.48948  21740963.3994   21740973.8424   21740963.043
        53.0004         48.0004
 -18675160.10449 -14537622.09648  20428784.8854   20428788.7744   20428784.505
        55.0004         51.0004
 -17752084.87948 -13829653.86647  21916363.5614   21916370.1834   21916363.620
        50.0004         45.0004
  -3049555.95247  -2122290.28546  23978761.5214   23978776.1664   23978761.753
        46.0004         41.0004
 -15706479.82749 -12219687.22948  21356357.4074   21356363.2934   21356358.187
        54.0004         50.0004
 -10445173.04247  -8126203.99946  23413987.2774   23413993.3384   23413988.772
        46.0004         41.0004
 -25400011.72447 -19784348.58047  23422419.3664   23422432.9304   23422419.463
        47.0004         42.0004
   -613526.98748   -478539.52047  23723452.5004   23723456.3954   23723452.894
        48.0004         43.0004
 15  1 11  0 33 30.0000000  0  8G27G16G14G19G32G08G22G31
 -10369975.75448  -8063845.10548  21726770.8594   21726781.8754   21726770.636
        53.0004         48.0004
 -18657385.41749 -14523771.66048  20432167.0854   20432170.9174   20432166.934
        55.0004         51.0004
 -17727596.19148 -13810571.87647  21921024.0234   21921031.0554   21921023.683
        50.0004         45.0004
  -3144815.37447  -2196518.38946  23960634.2734   23960648.3654   23960635.335
        46.0004         41.0004
 -15705514.66649 -12218935.17648  21356541.4514   21356547.3464   21356541.816
        54.0004         50.0004
 -10439784.45947  -8122005.07746  23415013.5044   23415018.3924   23415014.351
        46.0004         41.0004
 -25304648.67547 -19710039.42247  23440566.2014   23440579.0684   23440566.732
        47.0004         42.0004
   -597057.92648   -465706.50847  23726585.5414   23726589.9404   23726585.633
        48.0004         43.0004
 15  1 11  0 34  0.0000000  0  8G27G16G14G19G32G08G22G31
 -10444355.10948  -8121802.89148  21712616.9254   21712627.5684   21712616.569
        53.0004         48.0004
 -18639084.68449 -14509511.31148  20435649.3744   20435653.3784   20435649.774
        55.0004         51.0004
 -17702660.78948 -13791141.81247  21925769.6764   21925775.9234   21925769.354
        50.0004         45.0004
  -3240179.03847  -2270827.73646  23942487.1324   23942500.2754   23942488.166
        46.0004         41.0004
 -15704104.22749 -12217836.15648  21356809.6264   21356815.3784   21356810.228
        54.0004         50.0004
 -10434573.39247  -8117944.47846  23416005.7764   23416010.9874   23416006.704
        46.0004         41.0004
 -25209306.60247 -19635746.59047  23458709.2244   23458721.9724   23458710.730
        47.0004         42.0004
   -580777.52348   -453020.49947  23729684.3814   23729687.2074   23729683.096
        48.0004         43.0004
 15  1 11  0 34 30.0000000  0  8G27G16G14G19G32G08G22G31
 -10518529.86648  -8179601.22648  21698501.6484   21698512.9194   21698501.454
        53.0004         48.0004
 -18620258.16249 -14494841.25948  20439232.2044   20439236.1034   20439232.119
        55.0004         51.0004
 -17677276.35548 -13771361.82947  21930599.9884   21930606.7684   21930600.433
        50.0004         45.0004
  -3335642.96447  -2345215.22646  23924320.1344   23924333.6494   23924321.332
        46.0004         41.0004
 -15702247.72349 -12216389.55248  21357162.8924   21357168.6414   21357163.464
        54.0004         50.0004
 -10429539.14747  -8114021.66646  23416963.7144   23416968.9254   23416964.248
        46.0004         41.0004
 -25113985.76947 -19561470.23446  23476849.3154   23476861.8634   23476848.686
        46.0004         40.0004
   -564683.21547   -440479.48647  23732745.8664   23732748.6874   23732745.868
        47.0004         43.0004
 15  1 11  0 35  0.0000000  0  8G27G16G14G19G32G08G22G31
 -10592499.64448  -8237239.85648  21684425.7694   21684436.7124   21684425.931
        53.0004         48.0004
 -18600910.04749 -14479764.78048  20442914.0424   20442917.8414   20442914.197
        55.0004         51.0004
 -17651445.01948 -13751233.63847  21935515.6614   21935523.0624   21935515.860
        50.0004         45.0004
  -3431207.52247  -2419681.15347  23906134.7864   23906149.2614   23906134.945
        46.0004         42.0004
 -15699948.86749 -12214598.26548  21357600.2494   21357605.6094   21357600.488
        54.0004         50.0004
 -10424685.01047  -8110239.19246  23417887.0104   23417892.2424   23417887.603
        46.0004         41.0004
 -25018689.38447 -19487211.57646  23494981.7754   23494992.5934   23494982.433
        46.0004         41.0004
   -548777.07947   -428085.11447  23735773.5564   23735777.5394   23735773.012
        47.0004         42.0004
 15  1 11  0 35 30.0000000  0  8G27G16G14G19G32G08G22G31
 -10666258.60248  -8294714.20148  21670389.6564   21670400.5944   21670389.650
        53.0004         48.0004
 -18581039.61149 -14464281.29048  20446695.1584   20446698.9794   20446695.188
        55.0004         51.0004
 -17625162.73548 -13730754.04347  21940516.8454   21940524.6584   21940517.576
        50.0004         45.0004
  -3526867.27447  -2494221.21647  23887931.2484   23887945.9694   23887932.618
        47.0004         42.0004
 -15697205.78849 -12212460.82448  21358121.8494   21358127.7854   21358121.837
        54.0004         49.0004
 -10420009.07047  -8106595.55646  23418777.7364   23418781.2014   23418777.520
        46.0004         41.0004
 -24923420.67647 -19412975.26146  23513109.8284   23513120.7824   23513110.675
        46.0004         41.0004
   -533056.01447   -415834.96047  23738766.2534   23738769.0854   23738765.821
        47.0004         42.0004
 15  1 11  0 36  0.0000000  0  8G27G16G14G19G32G08G22G31
 -10739804.09148  -8352022.21248  21656394.6104   21656405.2824   21656394.076
        53.0004         48.0004
 -18560648.96849 -14448392.45248  20450575.1244   20450579.3674   20450575.082
        55.0004         51.0004
 -17598429.83748 -13709923.33247  21945604.5974   21945610.8074   21945604.450
        50.0004         45.0004
  -3622620.55247  -2568834.15047  23869711.6404   23869724.1484   23869712.371
        47.0004         43.0004
 -15694019.88249 -12209978.33248  21358728.5374   21358734.5484   21358729.062
        54.0004         49.0004
 -10415512.46247  -8103091.70146  23419632.7624   23419637.1384   23419633.987
        46.0004         41.0004
 -24828181.54747 -19338762.28347  23531232.6104   23531244.1874   23531233.260
        47.0004         42.0004
   -517519.67447   -403728.73047  23741721.6514   23741724.1124   23741720.609
        47.0004         42.0004
 15  1 11  0 36 30.0000000  0  8G27G16G14G19G32G08G22G31
 -10813136.74048  -8409164.36748  21642439.4024   21642450.2554   21642439.267
        53.0004         48.0004
 -18539743.80849 -14432102.68648  20454553.4364   20454557.4584   20454553.707
        55.0004         51.0004
 -17571249.47948 -13688743.93847  21950776.2524   21950783.4784   21950776.692
        50.0004         45.0004
  -3718468.47547  -2643520.85347  23851471.2484   23851485.7094   23851472.090
        47.0004         43.0004
 -15690395.87149 -12207154.46048  21359418.5004   21359424.0114   21359418.851
        54.0004         49.0004
 -10411199.55247  -8099730.96546  23420453.7314   23420459.7204   23420454.296
        46.0004         41.0004
 -24732977.60347 -19264576.81446  23549349.0814   23549360.2154   23549349.460
        45.0004         38.0004
   -502170.99147   -391768.72447  23744641.8304   23744646.7764   23744641.485
        46.0004         42.0004
 15  1 11  0 37  0.0000000  0  8G27G16G14G19G32G08G22G31
 -10886248.25048  -8466134.20948  21628527.0024   21628537.4854   21628526.415
        53.0004         48.0004
 -18518320.34449 -14415409.04648  20458629.6504   20458634.0194   20458630.015
        55.0004         51.0004
 -17543615.72448 -13667211.25547  21956034.9774   21956042.7914   21956035.452
        50.0004         45.0004
  -3814403.20147  -2718275.16347  23833215.9944   23833230.0454   23833216.188
        47.0004         43.0004
 -15686329.46749 -12203985.86948  21360191.9884   21360197.5334   21360192.568
        54.0004         49.0004
 -10407066.08347  -8096510.02846  23421239.2614   23421245.8214   23421239.879
        46.0004         41.0004
 -24637805.68147 -19190416.34246  23567459.1504   23567471.2754   23567459.781
        44.0004         38.0004
   -487003.99047   -379950.29647  23747527.6134   23747532.4074   23747527.438
        47.0004         42.0004
 15  1 11  0 37 30.0000000  0  9G27G16G14G03G19G32G08G22G31
 -10959127.37048  -8522922.96448  21614658.1974   21614668.9544   21614657.944
        53.0004         49.0004
 -18496372.43249 -14398306.75048  20462806.7074   20462810.4874   20462806.845
        55.0004         51.0004
 -17515519.78848 -13645318.42447  21961380.9154   21961389.2494   21961381.073
        50.0004         45.0004
   -464119.23647   -319631.39746  23068882.6514   23068888.8284   23068881.518
        47.0004         37.0004
  -3910414.09047  -2793088.81547  23814945.6834   23814959.4804   23814946.108
        47.0004         43.0004
 -15681813.59749 -12200467.04748  21361050.9574   21361057.4574   21361051.657
        54.0004         49.0004
 -10403104.25447  -8093422.87047  23421995.2474   23421998.8064   23421994.157
        46.0004         42.0004
 -24542660.23147 -19116276.55246  23585565.6814   23585575.0654   23585564.305
        43.0004         38.0004
   -472009.80647   -368266.52947  23750382.6144   23750385.9234   23750381.276
        46.0004         42.0004
 15  1 11  0 38  0.0000000  0  9G27G16G14G03G19G32G08G22G31
 -11031787.93548  -8579541.41448  21600831.0134   21600841.8254   21600830.755
        53.0004         49.0004
 -18473919.25649 -14380810.74548  20467079.2154   20467083.1074   20467079.537
        55.0004         51.0004
 -17486977.88248 -13623078.09247  21966812.4814   21966820.3614   21966812.445
        50.0004         45.0004
   -514919.01447   -359215.69146  23059213.7544   23059221.4044   23059214.708
        44.0004         37.0004
  -4006515.54747  -2867973.00747  23796657.3884   23796673.2284   23796658.411
        47.0004         42.0004
 -15676866.15949 -12196611.93248  21361992.8614   21361998.9744   21361993.557
        54.0004         49.0004
 -10399331.84847  -8090483.31346  23422712.5494   23422716.6794   23422712.893
        46.0004         41.0004
 -24447559.67747 -19042171.77347  23603660.4094   23603671.7914   23603661.791
        46.0004         43.0004
   -457204.45447   -356729.90247  23753199.2174   23753202.4544   23753198.646
        46.0004         42.0004
 15  1 11  0 38 30.0000000  0  9G27G16G14G03G19G32G08G22G31
 -11104225.05248  -8635985.75648  21587046.7714   21587057.5654   21587046.599
        53.0004         49.0004
 -18450960.35549 -14362920.66648  20471447.9644   20471452.3994   20471448.325
        55.0004         51.0004
 -17457987.90248 -13600488.61247  21972329.7854   21972336.7974   21972329.531
        50.0004         45.0004
   -565294.10647   -398469.02646  23049628.5704   23049636.5374   23049628.840
        42.0004         37.0004
  -4102703.23947  -2942924.44847  23778353.2554   23778368.9264   23778354.231
        47.0004         42.0004
 -15671486.35149 -12192419.91748  21363016.6994   21363022.1164   21363017.167
        54.0004         49.0004
 -10395747.76347  -8087690.52146  23423394.1814   23423398.5414   23423394.487
        46.0004         41.0004
 -24352505.01447 -18968103.01046  23621748.6504   23621760.0564   23621749.407
        45.0004         40.0004
   -442585.46047   -345338.50247  23755982.5824   23755983.8154   23755981.400
        46.0004         42.0004
 15  1 11  0 39  0.0000000  0  9G27G16G14G03G19G32G08G22G31
 -11176433.51648  -8692251.94348  21573306.1354   21573316.4994   21573305.777
        53.0004         49.0004
 -18427496.11149 -14344636.81448  20475913.3064   20475917.4634   20475913.652
        55.0004         51.0004
 -17428547.30148 -13577548.00347  21977932.0144   21977940.0554   21977932.769
        50.0004         45.0004
   -615241.64947   -437389.18046  23040124.5404   23040131.9304   23040123.971
        42.0004         38.0004
  -4198972.66547  -3017939.55847  23760034.2354   23760048.3754   23760034.924
        47.0004         42.0004
 -15665673.18049 -12187890.20548  21364122.5964   21364129.0414   21364123.139
        54.0004         49.0004
 -10392350.36647  -8085043.16747  23424040.2644   23424045.8314   23424040.701
        46.0004         42.0004
 -24257496.41347 -18894070.09646  23639828.7954   23639841.2994   23639829.199
        45.0004         40.0004
   -428149.88347   -334090.00647  23758727.4354   23758731.6264   23758727.400
        46.0004         42.0004
 15  1 11  0 39 30.0000000  0  9G27G16G14G03G19G32G08G22G31
 -11248409.72548  -8748337.13248  21559609.0284   21559619.4824   21559609.168
        53.0004         49.0004
 -18403528.02049 -14325960.35648  20480474.0744   20480478.1884   20480474.383
        55.0004         51.0004
 -17398654.61548 -13554255.09747  21983620.8624   21983627.3684   21983620.642
        49.0004         45.0004
   -664760.31747   -475975.11446  23030700.2384   23030708.3834   23030700.478
        42.0004         38.0004
  -4295320.60947  -3093015.84047  23741699.3654   23741714.6004   23741699.946
        46.0004         42.0004
 -15659427.20249 -12183023.24848  21365311.2594   21365317.1574   21365311.337
        54.0004         49.0004
 -10389139.79347  -8082541.38147  23424651.8834   23424656.8674   23424651.894
        46.0004         42.0004
 -24162535.42547 -18820074.34847  23657899.1994   23657909.5924   23657899.889
        45.0004         42.0004
   -413896.34547   -322983.37047  23761440.6354   23761444.9454   23761439.290
        46.0004         42.0004
 15  1 11  0 40  0.0000000  0  9G27G16G14G03G19G32G08G22G31
 -11320149.80349  -8804238.32648  21545957.7464   21545967.9744   21545957.308
        54.0004         49.0004
 -18379057.05749 -14306892.04848  20485130.9684   20485134.8824   20485131.264
        56.0004         51.0004
 -17368308.76948 -13530609.09547  21989395.3264   21989402.4864   21989395.903
        49.0004         45.0004
   -713848.65247   -514225.73246  23021359.7814   23021366.1994   23021361.117
        42.0004         38.0004
  -4391743.70947  -3168150.70146  23723351.2354   23723365.2144   23723351.541
        46.0004         41.0004
 -15652748.77149 -12177819.30948  21366582.0264   21366587.9934   21366583.036
        54.0004         49.0004
 -10386116.15847  -8080185.29647  23425227.7224   23425230.7584   23425227.515
        46.0004         42.0004
 -24067624.10047 -18746117.49646  23675960.7984   23675971.2894   23675960.811
        44.0004         39.0004
   -399823.77947   -312017.74047  23764119.2224   23764121.7534   23764118.930
        47.0004         42.0004
 15  1 11  0 40 30.0000000  0  9G27G16G14G03G19G32G08G22G31
 -11391650.41349  -8859952.91748  21532350.9594   21532361.0614   21532350.849
        54.0004         49.0004
 -18354084.39449 -14287432.80448  20489883.0184   20489886.9844   20489883.372
        55.0004         51.0004
 -17337509.25748 -13506609.56847  21995256.5934   21995264.1534   21995257.086
        49.0004         45.0004
   -762505.54347   -552140.17346  23012101.5824   23012107.5634   23012101.144
        42.0004         37.0004
  -4488239.19447  -3243341.95547  23704989.1324   23705002.8214   23704989.213
        46.0004         42.0004
 -15645638.66849 -12172278.99348  21367935.7024   21367941.8504   21367936.502
        54.0004         50.0004
 -10383279.57847  -8077974.97046  23425766.5984   23425771.2354   23425767.314
        46.0004         41.0004
 -23972761.46147 -18672198.00547  23694011.1624   23694022.3104   23694011.752
        46.0004         43.0004
   -385930.75047   -301192.02247  23766761.9604   23766765.2314   23766760.883
        47.0004         42.0004
 15  1 11  0 41  0.0000000  0  9G27G16G14G03G19G32G08G22G31
 -11462907.29949  -8915477.59448  21518791.0554   21518801.3334   21518791.011
        54.0004         49.0004
 -18328611.71149 -14267583.93348  20494730.1834   20494734.3004   20494730.490
        55.0004         51.0004
 -17306254.02448 -13482254.91147  22001203.8204   22001210.9694   22001203.875
        49.0004         45.0004
   -810729.08547   -589716.95746  23002924.8274   23002931.3144   23002924.959
        42.0004         37.0004
  -4584803.30847  -3318586.70647  23686613.5254   23686625.9184   23686613.921
        47.0004         42.0004
 -15638096.89849 -12166402.31648  21369370.2804   21369376.2824   21369370.824
        54.0004         49.0004
 -10380629.31347  -8075909.80847  23426271.3154   23426275.1394   23426271.662
        46.0004         42.0004
 -23877952.40548 -18598320.75647  23712053.1644   23712063.6104   23712053.859
        48.0004         43.0004
   -372215.04347   -290504.47647  23769372.8374   23769376.0774   23769372.326
        47.0004         43.0004
 15  1 11  0 41 30.0000000  0  9G27G16G14G03G19G32G08G22G31
 -11533919.73349  -8970811.78348  21505277.6864   21505288.1224   21505277.438
        54.0004         49.0004
 -18302643.01149 -14247348.55748  20499671.8364   20499675.9114   20499672.403
        55.0004         51.0004
 -17274545.25748 -13457546.65347  22007237.9824   22007245.0874   22007238.384
        49.0004         44.0004
   -858521.10847   -626957.48646  22993832.8604   22993836.9884   22993829.730
        42.0004         37.0004
  -4681435.76747  -3393884.69647  23668224.2894   23668238.7024   23668225.807
        47.0004         42.0004
 -15630126.96749 -12160192.01548  21370887.6594   21370893.0304   21370887.723
        54.0004         50.0004
 -10378168.53747  -8073992.31747  23426739.2184   23426743.5174   23426739.453
        46.0004         42.0004
 -23783201.02947 -18524489.18645  23730086.0084   23730089.6564   23730083.763
        45.0004         35.0004
   -358678.34947   -279956.41947  23771948.1434   23771951.8974   23771947.891
        47.0004         43.0004
 15  1 11  0 42  0.0000000  0  9G27G16G14G03G19G32G08G22G31
 -11604685.35449  -9025953.64948  21491811.1604   21491821.4694   21491810.979
        54.0004         49.0004
 -18276181.18949 -14226728.92948  20504707.2934   20504711.5694   20504707.393
        55.0004         51.0004
 -17242382.65848 -13432484.42247  22013358.2004   22013365.8814   22013358.211
        49.0004         47.0004
   -905881.50047   -663861.70346  22984819.2234   22984826.0154   22984819.141
        42.0004         37.0004
  -4778134.85747  -3469234.57447  23649824.3874   23649837.5104   23649823.888
        47.0004         42.0004
 -15621730.86749 -12153649.62448  21372485.0124   21372490.8784   21372485.686
        54.0004         50.0004
 -10375898.50747  -8072223.46646  23427171.9254   23427175.5604   23427172.348
        46.0004         41.0004
 -23688505.47447 -18450700.66946  23748102.8734   23748113.0614   23748103.196
        44.0004         39.0004
   -345320.55347   -269547.76447  23774490.0114   23774493.4414   23774488.957
        47.0004         42.0004
 15  1 11  0 42 30.0000000  0  9G27G16G14G03G19G32G08G22G31
 -11675198.27749  -9080898.60248  21478392.9554   21478403.3144   21478392.941
        54.0004         49.0004
 -18249225.53349 -14205724.50448  20509836.8874   20509841.1684   20509837.034
        55.0004         51.0004
 -17209764.28548 -13407067.43247  22019564.5354   22019572.7294   22019564.559
        49.0004         44.0004
   -952806.89046   -700426.96946  22975886.1554   22975895.1874   22975887.022
        41.0004         36.0004
  -4874894.83847  -3544631.90147  23631410.4474   23631424.1964   23631410.366
        47.0004         42.0004
 -15612906.89349 -12146773.82148  21374164.3694   21374170.5004   21374164.828
        54.0004         50.0004
 -10373816.70047  -8070601.27346  23427567.4714   23427572.2724   23427567.778
        46.0004         41.0004
 -23593868.51547                  23766110.4814                   23766112.492
        43.0004
   -332138.03347   -259275.68347  23776998.6304   23777002.0054   23776998.229
        47.0004         42.0004
 15  1 11  0 43  0.0000000  0  9G27G16G14G03G19G32G08G22G31
 -11745482.56449  -9135665.40548  21465018.2934   21465028.6244   21465017.762
        54.0004         49.0004
 -18221805.04349 -14184357.86748  20515054.8064   20515058.8484   20515054.720
        55.0004         51.0004
 -17176716.16548 -13381315.44647  22025853.3734   22025860.5614   22025853.765
        49.0004         45.0004
  -2574743.80746  -1964273.88345  22967036.3444   22967042.9114   22967036.076
        40.0004         34.0004
  -4971740.46647  -3620095.97447  23612981.3654   23612994.9164   23612982.089
        47.0004         42.0004
 -15603683.32149 -12139586.65048  21375919.5154   21375925.3354   21375919.296
        54.0004         50.0004
 -10371951.29547  -8069147.69146  23427922.8824   23427927.5144   23427921.583
        46.0004         41.0004
 -23499319.80247 -18303282.67646  23784103.8814   23784113.3994   23784103.992
        44.0004         39.0004
   -319157.26847   -249160.82747  23779469.4824   23779474.0434   23779469.896
        47.0004         43.0004
 15  1 11  0 43 30.0000000  0  9G27G16G14G03G19G32G08G22G31
 -11815465.98549  -9190197.75648  21451700.6454   21451710.9564   21451700.297
        54.0004         49.0004
 -18193852.82049 -14162576.88348  20520373.8254   20520378.0274   20520374.217
        55.0004         51.0004
 -17143169.44848 -13355175.12347  22032238.1744   22032245.1514   22032237.888
        50.0004         47.0004
  -2620782.41446  -2000148.07345  22958277.0044   22958279.6074   22958274.522
        39.0004         34.0004
  -5068600.10747  -3695570.95347  23594548.8644   23594562.7624   23594550.567
        47.0004         42.0004
 -15593992.39849 -12132035.31048  21377763.5294   21377769.4184   21377764.042
        54.0004         50.0004
 -10370233.42247  -8067809.08646  23428249.5004   23428253.1194   23428249.662
        46.0004         41.0004
 -24980211.17246                  23802086.3084                   23802092.180
        40.0004
   -306307.80447   -239148.28547  23781915.3634   23781916.6244   23781914.454
        47.0004         43.0004
 15  1 11  0 44  0.0000000  0  9G27G16G14G03G19G32G08G22G31
 -11885198.73149  -9244534.79348  21438430.7914   21438440.8794   21438430.446
        54.0004         49.0004
 -18165424.30349 -14140424.76448  20525783.9484   20525787.9374   20525784.093
        55.0004         51.0004
 -17109176.54748 -13328687.13947  22038706.4894   22038713.7974   22038705.943
        49.0004         43.0004
  -2666395.44046  -2035690.70845  22949598.1304   22949603.9484   22949596.128
        40.0004         35.0004
  -5165524.25447  -3771096.18847  23576104.9414   23576119.1144   23576106.726
        47.0004         43.0004
 -15583888.51849 -12124162.18448  21379686.3274   21379692.2414   21379686.804
        54.0004         50.0004
 -10368716.88447  -8066627.35346  23428537.8234   23428542.9984   23428538.257
        46.0004         41.0004
                                                                  23820063.703

   -293642.20847   -229279.02847  23784325.8384   23784327.6134   23784324.730
        47.0004         42.0004
 15  1 11  0 44 30.0000000  0  9G27G16G14G03G19G32G08G22G31
 -11954673.51749  -9298670.81848  21425210.3064   21425220.5254   21425210.029
        54.0004         49.0004
 -18136517.21849 -14117899.72948  20531284.4654   20531288.5064   20531284.736
        55.0004         51.0004
 -17074732.68448 -13301847.54347  22045260.6884   22045267.9464   22045260.244
        49.0004         42.0004
  -2711578.02446  -2070897.91246  22940999.2514   22941005.6344   22940998.168
        41.0004         37.0004
  -5262505.50647  -3846665.90647  23557650.4504   23557664.6904   23557650.939
        47.0004         42.0004
 -15573368.67849 -12115964.93548  21381688.1684   21381693.8744   21381688.440
        54.0004         50.0004
 -10367397.83447  -8065599.50546  23428788.2754   23428794.2294   23428789.540
        46.0004         41.0004
 -24791386.88447                  23838023.4224                   23838023.756
        42.0004
   -281155.55547   -219549.18547  23786700.3514   23786703.3144   23786699.743
        47.0004         42.0004
 15  1 11  0 45  0.0000000  0  9G27G16G14G03G19G32G08G22G31
 -12023881.04949  -9352598.59948  21412040.7724   21412050.3054   21412040.300
        54.0004         49.0004
 -18107127.54949 -14094998.65648  20536877.0874   20536880.8064   20536877.364
        55.0004         50.0004
 -17039832.49548 -13274652.74347  22051902.1794   22051908.6414   22051901.541
        50.0004         43.0004
  -2756323.45946  -2105764.49646  22932483.9354   22932489.8054   22932481.585
        41.0004         37.0004
  -5359535.58747  -3922273.66347  23539185.2914   23539199.5334   23539186.303
        47.0004         42.0004
 -15562428.01249 -12107439.77848  21383770.0664   21383776.0244   21383770.787
        54.0004         49.0004
 -10366270.67047  -8064721.18646  23429004.8384   23429008.6144   23429003.830
        46.0004         41.0004
 -24697081.15246                  23855969.6334                   23855969.457
        40.0004
   -268840.52847   -209953.06647  23789043.7464   23789047.3184   23789043.589
        47.0004         43.0004
 15  1 11  0 45 30.0000000  0  9G27G16G14G03G19G32G08G22G31
 -12092824.03149  -9406320.24548  21398921.0014   21398930.8104   21398920.705
        54.0004         50.0004
 -18077263.67449 -14071728.07148  20542559.9274   20542563.5154   20542559.979
        55.0004         50.0004
 -17004480.30848 -13247105.56046  22058629.0604   22058635.8224   22058629.112
        49.0004         41.0004
  -2800636.89447  -2140294.46646  22924051.9024   22924058.4494   22924050.641
        42.0004         37.0004
  -5456617.25147  -3997921.61447  23520712.3814   23520725.2154   23520712.423
        47.0004         42.0004
 -15551073.65149 -12098592.25648  21385930.6214   21385936.7154   21385931.229
        54.0004         49.0004
 -10365341.73547  -8063997.32546  23429180.5324   23429184.5604   23429181.189
        46.0004         41.0004
 -24602849.79747                  23873900.0264                   23873900.445
        42.0004
   -256701.83347   -200494.34347  23791353.1464   23791357.0064   23791353.377
        47.0004         43.0004
 15  1 11  0 46  0.0000000  0  9G27G16G14G03G19G32G08G22G31
 -12161494.96649  -9459829.89948  21385853.0244   21385862.9354   21385852.680
        54.0004         49.0004
 -18046923.15849 -14048086.08148  20548333.7464   20548337.3004   20548333.919
        55.0004         50.0004
 -16968672.19848 -13219203.21347  22065442.8804   22065449.5574   22065442.658
        48.0004         46.0004
  -2844513.51047  -2174484.03846  22915701.6264   22915707.2314   22915702.722
        42.0004         37.0004
  -5553743.58347  -4073604.37247  23502229.1194   23502242.1714   23502229.355
        47.0004         42.0004
 -15539302.42249 -12089419.91048  21388170.5044   21388177.0074   21388170.805
        54.0004         49.0004
 -10364606.95547  -8063424.76746  23429321.1144   23429326.1044   23429320.532
        46.0004         41.0004
 -24508693.23047                  23891816.0194                   23891817.198
        42.0004
   -244734.27847   -191169.04347  23793631.8024   23793634.4104   23793631.246
        47.0004         42.0004
 15  1 11  0 46 30.0000000  0  9G27G16G14G03G19G32G08G22G31
 -12229888.11349  -9513123.09648  21372838.0084   21372848.1964   21372837.658
        54.0004         49.0004
 -18016105.07849 -14024071.96448  20554198.2864   20554201.8014   20554198.006
        55.0004         50.0004
 -16932405.28548 -13190943.36047  22072343.3324   22072352.5794   22072344.052
        48.0004         42.0004
  -2887950.11646  -2208330.73646  22907433.9674   22907439.1264   22907435.671
        41.0004         36.0004
  -5650909.14447  -4149317.72147  23483740.0734   23483753.0274   23483740.853
        47.0004         42.0004
 -15527113.01949 -12079921.71748  21390490.4454   21390496.1174   21390490.842
        54.0004         49.0004
 -10364064.01547  -8063001.69346  23429424.1214   23429426.7584   23429424.148
        46.0004         41.0004
 -24414613.22459                  23909716.6015                   23909718.071
        55.0004
   -232934.14147   -181974.15347  23795876.3844   23795879.2504   23795877.078
        47.0004         43.0004
 15  1 11  0 47  0.0000000  0  9G27G16G14G03G19G32G08G22G31
 -12298001.37949  -9566198.20748  21359876.4904   21359886.1394   21359876.054
        54.0004         50.0004
 -17984813.13249 -13999688.60148  20560152.6554   20560156.6784   20560152.883
        55.0004         51.0004
 -16895679.51347 -13162325.71347  22079334.0654   22079340.1724   22079332.691
        47.0004         43.0004
  -2930946.96946  -2241834.75746  22899253.2274   22899258.8924   22899253.141
        41.0004         37.0004
  -5748112.07547  -4225060.14447  23465242.0204   23465255.1774   23465242.636
        47.0004         43.0004
 -15514507.67249 -12070099.40948  21392889.1484   21392895.0544   21392889.406
        54.0004         49.0004
 -10363714.50947  -8062729.32746  23429489.5794   23429494.5444   23429489.096
        45.0004         41.0004
                                                                  23927604.071

   -221301.41547   -172909.69647  23798089.5004   23798093.4904   23798089.360
        47.0004         42.0004
 15  1 11  0 47 30.0000000  0  9G27G16G14G03G19G32G08G22G31
 -12365837.44549  -9619057.32248  21346967.6924   21346977.1164   21346967.708
        54.0004         50.0004
 -17953055.45849 -13974942.33448  20566195.9884   20566199.7024   20566196.301
        55.0004         50.0004
 -16858501.49448 -13133356.02147  22086407.9614   22086416.0294   22086407.500
        49.0004         44.0004
  -2973509.63547  -2275000.48146  22891153.5004   22891161.5944   22891152.571
        42.0004         37.0004
  -5845355.50447  -4300834.10947  23446737.9604   23446750.7024   23446738.222
        47.0004         43.0004
 -15501493.54449 -12059958.56848  21395365.5864   21395371.5414   21395366.120
        54.0004         49.0004
 -10363564.62447  -8062612.53146  23429518.7454   23429522.3154   23429518.363
        46.0004         41.0004
                                                                  23945474.148

   -209841.08647   -163979.59647  23800270.2144   23800274.6104   23800271.672
        47.0004         42.0004
 15  1 11  0 48  0.0000000  0  9G27G16G14G03G19G32G08G22G31
 -12433380.96249  -9671688.48548  21334114.6724   21334123.8504   21334114.209
        54.0004         50.0004
 -17920821.75149 -13949825.13748  20572329.7154   20572333.4584   20572330.041
        55.0004         50.0004
 -16820858.60548 -13104024.19347  22093571.2724   22093578.5644   22093571.462
        49.0004         45.0004
  -3015625.40147  -2307817.99746  22883138.1384   22883147.1274   22883138.229
        43.0004         38.0004
  -5942624.48247  -4376627.97447  23428227.5744   23428240.2684   23428227.437
        47.0004         43.0004
 -15488059.73649 -12049490.71748  21397922.0174   21397928.0544   21397922.602
        54.0004         49.0004
 -10363602.32847  -8062641.90746  23429510.7704   23429515.4504   23429511.649
        46.0004         41.0004
                                                                  23963332.296

   -198539.88447   -155173.47947  23802421.9694   23802423.8644   23802420.229
        47.0004         42.0004
 15  1 11  0 48 30.0000000  0  8G27G16G14G03G19G32G08G31
 -12500647.27249  -9724103.64248  21321314.1584   21321323.6304   21321314.099
        54.0004         50.0004
 -17888132.79849 -13924353.20348  20578550.3564   20578553.8454   20578550.531
        55.0004         50.0004
 -16782768.03948 -13074343.05047  22100820.7844   22100826.3814   22100820.167
        49.0004         44.0004
  -3057312.12247  -2340301.16446  22875206.9844   22875214.1914   22875206.598
        44.0004         40.0004
  -6039934.39047  -4452453.72747  23409709.3194   23409724.2034   23409709.598
        47.0004         42.0004
 -15474225.94849 -12038711.18348  21400554.8004   21400560.5284   21400554.898
        54.0004         49.0004
 -10363846.49347  -8062832.14246  23429465.1444   23429468.2564   23429463.359
        45.0004         41.0004
   -187415.10647   -146504.85947  23804539.0604   23804541.1004   23804538.862
        47.0004         42.0004
 15  1 11  0 49  0.0000000  0  8G27G16G14G03G19G32G08G31
 -12567618.64949  -9776288.97448  21308569.3704   21308579.2124   21308569.167
        54.0004         50.0004
 -17854976.18449 -13898516.86248  20584859.9174   20584863.5204   20584860.194
        55.0004         50.0004
 -16744216.76448 -13044303.56347  22108156.9564   22108164.2744   22108156.578
        49.0004         45.0004
  -3098554.74947  -2372438.29046  22867359.5444   22867365.7344   22867358.683
        45.0004         40.0004
  -6137268.37347  -4528298.22347  23391188.2034   23391201.5184   23391188.951
        47.0004         42.0004
 -15459978.93049 -12027609.65948  21403266.0684   21403271.8874   21403266.264
        54.0004         49.0004
 -10364283.13547  -8063172.35246  23429380.5654   23429386.1594   23429381.818
        46.0004         41.0004
   -176450.89547   -137961.35347  23806625.6954   23806627.8304   23806623.723
        47.0004         42.0004
 15  1 11  0 49 30.0000000  0  8G27G16G14G03G19G32G08G31
 -12634299.31349  -9828247.77548  21295880.7764   21295890.2244   21295879.800
        54.0004         50.0004
 -17821361.35149 -13872323.45848  20591256.4384   20591260.3034   20591257.022
        55.0004         50.0004
 -16705210.54448 -13013909.20147  22115578.4254   22115586.6054   22115579.014
        49.0004         46.0004
  -3139360.21447  -2404234.76646  22859593.5674   22859600.2104   22859593.159
        45.0004         41.0004
  -6234630.13447  -4604164.37147  23372660.1534   23372673.8884   23372660.120
        47.0004         42.0004
 -15445327.45149 -12016192.96348  21406053.6034   21406059.6284   21406054.397
        54.0004         49.0004
 -10364919.84447  -8063668.50446  23429260.8354   23429264.2094   23429261.345
        46.0004         41.0004
   -165653.71647   -129547.98247  23808679.9864   23808682.9644   23808679.574
        47.0004         42.0004
 15  1 11  0 50  0.0000000  0  8G27G16G14G03G19G32G08G31
 -12700682.38649  -9879974.68148  21283248.1024   21283257.9944   21283247.906
        54.0004         50.0004
 -17787286.96949 -13845771.97248  20597740.5044   20597744.3904   20597740.670
        55.0004         50.0004
 -16665745.94548 -12983157.65747  22123089.4314   22123096.1064   22123088.995
        49.0004         46.0004
  -3179724.32847  -2435687.29946  22851912.0924   22851918.6744   22851910.566
        45.0004         40.0004
  -6332013.45647  -4680047.30447  23354128.8684   23354141.6994   23354129.027
        47.0004         43.0004
 -15430269.19749 -12004459.31248  21408919.3974   21408925.3804   21408920.250
        54.0004         49.0004
 -10365753.02847  -8064317.72946  23429101.3084   23429107.3444   23429101.642
        46.0004         41.0004
   -155018.56447   -121260.88647  23810702.8344   23810707.0234   23810702.671
        47.0004         42.0004
 15  1 11  0 50 30.0000000  0  8G27G16G14G03G19G32G08G31
 -12766766.17749  -9931468.38548  21270672.6174   21270681.9384   21270672.737
        54.0004         50.0004
 -17752756.69849 -13818865.25648  20604311.4074   20604314.9954   20604311.644
        55.0004         50.0004
 -16625824.41548 -12952050.13847  22130684.8884   22130693.1334   22130685.308
        49.0004         46.0004
  -3219648.08447  -2466796.73546  22844315.3344   22844321.4734   22844315.429
        45.0004         41.0004
  -6429416.80947  -4755945.81747  23335592.8354   23335607.2554   23335593.679
        47.0004         43.0004
 -15414806.90349 -11992410.82348  21411861.5914   21411867.7994   21411862.126
        54.0004         49.0004
 -10366784.11447  -8065121.16047  23428905.5264   23428910.8604   23428906.282
        46.0004         42.0004
   -144545.73747   -113100.27347  23812697.3734   23812700.2964   23812696.860
        47.0004         42.0004
 15  1 11  0 51  0.0000000  0  8G27G16G14G03G19G32G08G31
 -12832548.01649  -9982726.79948  21258154.8314   21258164.3304   21258154.659
        54.0004         50.0004
 -17717773.12149 -13791605.30748  20610968.5744   20610972.2214   20610968.684
        55.0004         51.0004
 -16585445.81348 -12920586.30548  22138369.5634   22138376.7544   22138369.694
        49.0004         48.0004
  -3259131.48847  -2497563.03947  22836802.1764   22836809.1094   22836801.503
        46.0004         42.0004
  -6526837.71947  -4831857.98147  23317053.5904   23317067.3454   23317054.450
        47.0004         42.0004
 -15398942.29449 -11980048.84148  21414880.8364   21414886.7984   21414880.975
        54.0004         49.0004
 -10368013.95947  -8066079.45347  23428671.6784   23428676.5154   23428672.211
        46.0004         42.0004
   -134234.86047   -105065.86347  23814659.4944   23814662.2084   23814657.576
        47.0004         42.0004
 15  1 11  0 51 30.0000000  0  9G27G16G14G03G19G32G08G22G31
 -12898024.51549 -10033747.27948  21245695.0694   21245704.2214   21245694.560
        54.0004         50.0004
 -17682338.04549 -13763993.53448  20617711.6684   20617715.3784   20617711.571
        55.0004         51.0004
 -16544610.51148 -12888766.76247  22146139.9934   22146147.9634   22146140.685
        49.0004         45.0004
  -3298173.94147  -2527985.75947  22829371.6604   22829378.5064   22829371.055
        47.0004         43.0004
  -6624273.11747  -4907781.45547  23298511.9604   23298526.3824   23298512.738
        47.0004         42.0004
 -15382676.62849 -11967374.34748  21417976.0424   21417982.0524   21417976.525
        54.0004         49.0004
 -10369442.56847  -8067192.64846  23428399.9824   23428403.0774   23428399.955
        46.0004         41.0004
                   -779160.11245                  24087843.6194   24087840.848
                        35.0004
   -124084.08147    -97156.20247  23816591.2624   23816594.2084   23816591.497
        47.0004         42.0004
 15  1 11  0 52  0.0000000  0  9G27G16G14G03G19G32G08G22G31
 -12963194.79149 -10084529.15148  21233293.4844   21233302.8384   21233293.299
        54.0004         50.0004
 -17646456.98549 -13736034.24648  20624539.4714   20624543.5294   20624539.970
        55.0004         51.0004
 -16503320.16448 -12856592.60347  22153997.2654   22154005.1034   22153997.685
        49.0004         45.0004
  -3336777.30848  -2558066.32647  22822026.1504   22822032.9974   22822025.804
        48.0004         43.0004
  -6721722.24947  -4983715.65747  23279968.9374   23279982.3684   23279969.297
        47.0004         43.0004
 -15366013.53349 -11954390.17148  21421147.2464   21421152.9574   21421147.898
        54.0004         50.0004
 -10371072.38647  -8068462.63346  23428089.8434   23428093.6524   23428090.141
        46.0004         41.0004
  -1001274.03849                  24105552.4834                   24105554.579
        56.0004
   -114094.66947    -89372.28947  23818491.4654   23818494.3664   23818491.475
        47.0004         42.0004
 15  1 11  0 52 30.0000000  0  8G27G16G14G03G19G32G08G31
 -13028053.37149 -10135068.14248  21220951.0664   21220960.4654   21220950.604
        55.0004         50.0004
 -17610129.30549 -13707726.94948  20631452.6534   20631456.5604   20631452.726
        55.0004         51.0004
 -16461573.18948 -12824062.90847  22161942.6464   22161949.6664   22161943.305
        49.0004         44.0004
  -3374938.91547  -2587802.66047  22814764.3834   22814770.1654   22814764.357
        47.0004         43.0004
  -6819179.77747  -5059656.34747  23261422.9234   23261436.4874   23261423.112
        47.0004         43.0004
 -15348952.02649 -11941095.54748  21424393.9294   21424399.7604   21424394.038
        54.0004         50.0004
 -10372901.24447  -8069887.69947  23427741.7904   23427746.1054   23427742.479
        46.0004         42.0004
   -104263.24947    -81711.45247  23820362.0994   23820365.9804   23820361.607
        47.0004         42.0004
 15  1 11  0 53  0.0000000  0  8G27G16G14G03G19G32G08G31
 -13092599.93149 -10185363.99748  21208667.7924   21208677.2694   21208667.909
        55.0004         50.0004
 -17573359.98649 -13679075.51348  20638449.4234   20638453.3684   20638449.433
        55.0004         51.0004
 -16419371.46148 -12791178.67347  22169972.9984   22169981.5304   22169973.821
        50.0004         45.0004
  -3412661.12448  -2617196.59747  22807586.0414   22807591.8954   22807584.842
        48.0004         43.0004
  -6916645.59347  -5135603.47347  23242875.4454   23242889.5714   23242876.376
        47.0004         42.0004
 -15331496.36149 -11927493.78548  21427715.5694   21427721.5784   21427715.564
        54.0004         50.0004
 -10374932.11947  -8071470.20046  23427355.6024   23427359.9054   23427356.825
        46.0004         41.0004
    -94591.18447    -74174.81547  23822202.7804   23822205.6904   23822201.871
        47.0004         42.0004
 15  1 11  0 53 30.0000000  0  9G27G16G14G03G19G32G08G22G31
 -13156829.83649 -10235413.11148  21196445.3134   21196454.3984   21196444.896
        55.0004         50.0004
 -17536149.86049 -13650080.58948  20645530.1394   20645534.2404   20645530.176
        55.0004         50.0004
 -16376712.96848 -12757938.25047  22178089.6254   22178098.2824   22178090.415
        49.0004         42.0004
  -3449942.17748  -2646246.77947  22800491.7624   22800498.0664   22800491.031
        48.0004         43.0004
  -7014115.25547  -5211553.61347  23224327.7574   23224340.7904   23224329.425
        47.0004         43.0004
 -15313646.41049 -11913584.78648  21431112.4144   21431118.5564   21431112.725
        54.0004         49.0004
 -10377163.57947  -8073208.99746  23426930.1404   23426935.2874   23426931.330
        46.0004         41.0004
   -923213.16549                  24158575.4634                   24158578.926
        56.0004
    -85075.65747    -66760.16547  23824014.1614   23824016.9184   23824013.153
        47.0004         42.0004
 15  1 11  0 54  0.0000000  0  9G27G16G14G03G19G32G08G22G31
 -13220738.92449 -10285212.24048  21184283.9274   21184292.8284   21184284.035
        55.0004         50.0004
 -17498500.17849 -13620743.15548  20652694.7944   20652698.5394   20652694.779
        55.0004         51.0004
 -16333598.33748 -12724342.89447  22186295.0544   22186302.2074   22186294.841
        49.0004         44.0004
  -3486780.68448  -2674952.13147  22793482.0844   22793487.5134   22793481.378
        48.0004         44.0004
  -7111584.77747  -5287503.64247  23205778.9854   23205791.8954   23205779.419
        47.0004         42.0004
 -15295402.67649 -11899368.94448  21434583.9434   21434590.4044   21434584.333
        54.0004         49.0004
 -10379594.95647  -8075103.56146  23426467.9984   23426473.1704   23426469.187
        46.0004         41.0004
                                                                  24176212.629

    -75714.37247    -59465.70047  23825793.6264   23825796.8914   23825793.569
        47.0004         42.0004
 15  1 11  0 54 30.0000000  0  9G27G16G14G03G19G32G08G22G31
 -13284323.91849 -10334758.82648  21172183.8754   21172193.2104   21172183.734
        55.0004         50.0004
 -17460413.26349 -13591065.02248  20659942.3964   20659946.1774   20659942.659
        55.0004         50.0004
 -16290026.94848 -12690391.60647  22194586.5804   22194595.4374   22194587.570
        50.0004         45.0004
  -3523176.22648  -2703312.30247  22786555.4514   22786562.8764   22786555.344
        49.0004         44.0004
  -7209050.83847  -5363450.95747  23187232.4044   23187244.9004   23187233.768
        47.0004         43.0004
 -15276766.38249 -11884847.21948  21438130.2994   21438136.3254   21438131.011
        54.0004         49.0004
 -10382225.80147  -8077153.57746  23425967.7024   23425970.8044   23425969.832
        46.0004         41.0004
   -737992.86047                  24193821.7984                   24193821.598
        44.0004
    -66506.28147    -52290.60046  23827548.5364   23827551.1864   23827548.340
        46.0004         41.0004
 15  1 11  0 55  0.0000000  0  8G27G16G14G03G19G32G08G31
 -13347588.30749 -10384055.58448  21160144.9754   21160154.1694   21160144.966
        55.0004         50.0004
 -17421898.21449 -13561053.27948  20667271.4164   20667275.5144   20667271.684
        55.0004         50.0004
 -16246003.66548 -12656087.69347  22202963.4924   22202973.5564   22202964.517
        48.0004         42.0004
  -3559135.14048  -2731332.25647  22779713.4824   22779719.6624   22779712.369
        49.0004         44.0004
  -7306517.04648  -5439398.39347  23168685.1444   23168698.0064   23168686.145
        48.0004         43.0004
 -15257745.74149 -11870026.00648  21441749.8694   21441756.0404   21441750.071
        54.0004         49.0004
 -10385062.99847  -8079364.37847  23425427.7804   23425431.9464   23425427.400
        46.0004         42.0004
    -57456.63447    -45238.96046  23829269.6814   23829273.0164   23829269.870
        46.0004         41.0004
 15  1 11  0 55 30.0000000  0  8G27G16G14G03G19G32G08G31
 -13410521.43549 -10433094.21848  21148168.7294   21148178.1304   21148168.617
        55.0004         50.0004
 -17382949.83249 -13530703.86748  20674683.1264   20674687.0594   20674683.208
        55.0004         50.0004
 -16201521.77148 -12621426.10547  22211427.3074   22211437.8874   22211428.912
        48.0004         42.0004
  -3594649.59148  -2759005.88847  22772954.8254   22772962.1754   22772954.698
        49.0004         44.0004
  -7403972.84448  -5515337.71147  23150139.6494   23150152.8964   23150139.998
        48.0004         43.0004
 -15238334.61349 -11854900.51248  21445443.7084   21445449.9314   21445443.886
        54.0004         49.0004
 -10388099.47147  -8081730.44546  23424849.6304   23424853.2864   23424849.622
        46.0004         41.0004
    -48556.55847    -38303.86446  23830963.0514   23830966.1284   23830963.048
        46.0004         41.0004
 15  1 11  0 56  0.0000000  0  9G27G16G14G03G19G32G08G31G04
 -13473128.41449 -10481878.70748  21136254.8504   21136263.8184   21136254.651
        55.0004         50.0004
 -17343578.53749 -13500024.91848  20682175.6294   20682178.9784   20682175.932
        55.0004         50.0004
 -16156591.96547 -12586416.38547  22219979.0594   22219988.1274   22219978.943
        47.0004         43.0004
  -3629727.57348  -2786339.39947  22766279.2554   22766286.8184   22766278.793
        48.0004         44.0004
  -7501423.67148  -5591273.14747  23131594.2874   23131608.1924   23131596.202
        48.0004         43.0004
 -15218542.67549 -11839478.29448  21449210.4504   21449216.0254   21449210.747
        54.0004         49.0004
 -10391343.13747  -8084257.94946  23424232.4104   23424236.2764   23424232.677
        46.0004         41.0004
    -39812.80147    -31490.56447  23832625.7764   23832629.1704   23832625.845
        46.0004         42.0004
   -912043.33248   -695254.08045  24798088.8224   24798102.3664   24798089.214
        48.0004         34.0004
 15  1 11  0 56 30.0000000  0  9G27G16G14G03G19G32G08G31G04
 -13535400.13149 -10530401.95248  21124405.4874   21124413.9144   21124405.178
        55.0004         50.0004
 -17303780.78649 -13469013.67048  20689748.6934   20689752.3384   20689749.248
        55.0004         50.0004
 -16111205.24948 -12551050.17347  22228615.7924   22228624.4394   22228616.480
        50.0004         45.0004
  -3664362.92548  -2813327.99747  22759688.9104   22759696.0394   22759688.213
        48.0004         44.0004
  -7598860.20447  -5667197.43147  23113053.1294   23113066.4254   23113054.079
        47.0004         43.0004
 -15198365.50049 -11823755.88148  21453049.5964   21453056.1234   21453050.171
        54.0004         49.0004
 -10394788.31647  -8086942.49846  23423577.4864   23423580.6984   23423578.640
        46.0004         41.0004
    -31218.25347    -24793.54347  23834261.9944   23834265.9434   23834261.264
        47.0004         42.0004
   -921905.30047   -702938.47045  24796212.4324   24796227.5064   24796212.098
        43.0004         33.0004
 15  1 11  0 57  0.0000000  0  9G27G16G14G03G19G32G08G22G31
 -13597332.24449 -10578660.57548  21112619.9804   21112628.4664   21112619.949
        55.0004         50.0004
 -17263557.68349 -13437670.97348  20697402.5824   20697406.5064   20697402.872
        55.0004         50.0004
 -16065363.15048 -12515329.59247  22237339.1614   22237348.2634   22237339.121
        48.0004         45.0004
  -3698554.12348  -2839970.51247  22753182.8644   22753188.9084   22753181.783
        48.0004         44.0004
  -7696278.18948  -5743107.27247  23094514.2444   23094528.6974   23094515.346
        48.0004         43.0004
 -15177803.37149 -11807733.50548  21456962.4044   21456968.5764   21456963.231
        54.0004         49.0004
 -10398433.58347  -8089782.94046  23422882.1454   23422888.3084   23422883.279
        46.0004         41.0004
                                                                  24281552.821

    -22770.37747    -18210.82447  23835869.5294   23835873.9634   23835868.703
        46.0004         42.0004
 15  1 11  0 57 30.0000000  0 10G27G16G14G03G19G32G08G22G31G04
 -13658923.67749 -10626653.73548  21100899.2284   21100907.9594   21100899.156
        55.0004         50.0004
 -17222913.77049 -13406000.38148  20705136.7964   20705140.7444   20705137.200
        55.0004         50.0004
 -16019064.94147 -12479253.17847  22246150.0904   22246157.7194   22246149.569
        47.0004         43.0004
  -3732303.04548  -2866268.39047  22746760.7284   22746767.3624   22746759.464
        48.0004         44.0004
  -7793676.68748  -5819001.93847  23075980.0904   23075993.4494   23075980.575
        48.0004         43.0004
 -15156859.79449 -11791413.89948  21460947.9824   21460954.1594   21460948.338
        54.0004         49.0004
 -10402280.86047  -8092780.79846  23422150.4464   23422154.2614   23422150.811
        46.0004         41.0004
                                                                  24299032.033

    -14469.76547    -11742.83347  23837449.4364   23837453.2634   23837449.608
        46.0004         42.0004
   -942371.67746   -718885.90245  24792315.6044   24792334.7944   24792317.996
        38.0004         33.0004
 15  1 11  0 58  0.0000000  0 10G27G16G14G03G19G32G08G22G31G04
 -13720171.70949 -10674379.30348  21089243.6474   21089252.8764   21089243.373
        55.0004         50.0004
 -17181851.79849 -13374004.01848  20712950.8304   20712954.6854   20712951.099
        55.0004         50.0004
 -15972312.39647 -12442822.45747  22255045.8404   22255055.0454   22255047.022
        47.0004         42.0004
  -3765609.81848  -2892221.75547  22740422.3074   22740429.3684   22740421.907
        49.0004         44.0004
  -7891052.89548  -5894879.24347  23057450.0464   23057463.4194   23057450.270
        48.0004         43.0004
 -15135536.61749 -11774798.49748  21465005.9524   21465012.1614   21465006.382
        54.0004         49.0004
 -10406330.60747  -8095936.45146  23421381.0034   23421384.3004   23421380.750
        46.0004         41.0004
                                                                  24316486.835

     -6315.40347     -5388.81747  23839001.8744   23839004.3404   23839001.130
        46.0004         42.0004
   -952979.52846   -727151.52245  24790299.1494   24790315.0724   24790299.940
        38.0004         34.0004
 15  1 11  0 58 30.0000000  0 10G27G16G14G03G19G32G08G22G31G04
 -13781073.53049 -10721835.09848  21077654.5254   21077663.4974   21077654.476
        55.0004         51.0004
 -17140374.45949 -13341683.99648  20720843.5304   20720847.4644   20720843.652
        55.0004         50.0004
 -15925105.89148 -12406037.90247  22264029.6064   22264037.7154   22264029.823
        48.0004         44.0004
  -3798474.68748  -2917830.76947  22734168.4394   22734174.1124   22734167.260
        49.0004         44.0004
  -7988403.96448  -5970736.99047  23038924.4184   23038937.2724   23038925.038
        48.0004         43.0004
 -15113835.79449 -11757888.82748  21469135.4804   21469142.0424   21469136.377
        54.0004         50.0004
 -10410583.26247  -8099250.20346  23420571.1564   23420574.9834   23420571.708
        46.0004         41.0004
   -400736.10847                  24333918.4104                   24333919.320
        44.0004
      1693.68147       851.99546  23840525.7734   23840529.8844   23840525.200
        46.0004         41.0004
   -963837.97946   -735612.47045  24788234.2444   24788246.2094   24788233.327
        38.0004         33.0004
 15  1 11  0 59  0.0000000  0 10G27G16G14G03G19G32G08G22G31G04
 -13841630.04949 -10769021.83148  21066131.1014   21066139.7924   21066130.895
        55.0004         51.0004
 -17098488.11049 -13309045.26948  20728814.1064   20728818.2214   20728814.835
        55.0004         50.0004
 -15877449.89748 -12368903.19447  22273098.6104   22273106.5254   22273098.169
        48.0004         44.0004
  -3830901.42848  -2943098.37947  22727997.7544   22728004.6164   22727996.701
        49.0004         45.0004
  -8085730.79248  -6046575.81647  23020403.5664   23020416.6814   23020404.581
        48.0004         44.0004
 -15091762.84049 -11740689.19148  21473335.8934   21473342.2044   21473336.321
        54.0004         49.0004
 -10415042.74847  -8102725.11047  23419723.9374   23419726.5044   23419723.376
        46.0004         42.0004
   -309263.68146                  24351328.9764                   24351326.698
        40.0004
      9554.94747      6977.64046  23842021.4494   23842024.7594   23842022.261
        46.0004         41.0004
                   -744272.31445                  24786133.8514   24786114.526
                        33.0004
 15  1 11  0 59 30.0000000  0 10G27G16G14G03G19G32G08G22G31G04
 -13901834.65449 -10815934.34148  21054674.3554   21054682.8204   21054673.801
        55.0004         51.0004
 -17056191.64349 -13276086.96848  20736863.0044   20736866.7084   20736863.162
        54.0004         50.0004
 -15829341.85248 -12331416.54147  22282253.6824   22282260.9954   22282252.128
        49.0004         45.0004
  -3862886.39748  -2968021.76247  22721911.5254   22721917.6854   22721911.496
        49.0004         45.0004
  -8183026.66848  -6122390.52347  23001888.8084   23001902.5054   23001887.888
        48.0004         43.0004
 -15069315.71849 -11723197.98948  21477607.1234   21477613.7904   21477607.812
        54.0004         49.0004
 -10419705.37347  -8106358.33546  23418833.5864   23418839.9604   23418834.185
        46.0004         41.0004
   -217920.63046                  24368707.0064                   24368708.649
        41.0004
     17273.26847     12991.87547  23843490.7584   23843493.8674   23843491.131
        46.0004         42.0004
                   -753128.63345                  24783978.1084   24783956.151
                        31.0004
 15  1 11  1  0  0.0000000  0  9G27G16G14G03G19G32G08G22G31
 -13961678.24449 -10862565.53348  21043286.2644   21043294.8324   21043286.092
        55.0004         51.0004
 -17013481.67449 -13242806.45348  20744990.5184   20744994.2404   20744990.936
        54.0004         50.0004
 -15780775.11348 -12293572.60447  22291494.5504   22291503.5624   22291494.836
        48.0004         42.0004
  -3894423.55948  -2992596.16747  22715909.6234   22715917.0674   22715909.380
        49.0004         44.0004
  -8280282.63548  -6198174.14547  22983381.7194   22983393.8974   22983381.779
        48.0004         44.0004
 -15046490.09349 -11705411.85148  21481950.8404   21481956.9914   21481951.565
        54.0004         49.0004
 -10424565.38547  -8110145.32346  23417910.0684   23417914.4804   23417909.470
        46.0004         41.0004
                                                                  24386066.871

     24856.15847     18900.59847  23844933.2294   23844936.4114   23844932.701
        46.0004         42.0004
 15  1 11  1  0 30.0000000  0  9G27G16G14G03G19G32G08G22G31
 -14021173.45449 -10908925.25648  21031964.5384   21031973.2714   21031964.471
        55.0004         51.0004
 -16970376.40649 -13209217.91548  20753192.9204   20753197.1424   20753193.393
        54.0004         50.0004
 -15731764.83947 -12255382.61146  22300821.6334   22300830.9414   22300820.298
        47.0004         41.0004
  -3925528.47748  -3016833.80547  22709991.1134   22709998.0524   22709990.584
        49.0004         44.0004
  -8377511.04848  -6273936.28147  22964879.3724   22964891.6854   22964880.519
        48.0004         44.0004
 -15023303.18349 -11687344.18448  21486363.5794   21486369.8404   21486364.048
        54.0004         50.0004
 -10429638.09547  -8114098.09346  23416945.2764   23416948.7324   23416944.262
        45.0004         41.0004
    -35624.33846                  24403394.4234                   24403396.133
        38.0004
     32289.32447     24692.64447  23846347.6764   23846351.3714   23846348.390
        46.0004         42.0004
 15  1 11  1  1  0.0000000  0  9G27G16G14G03G19G32G08G22G31
 -14080312.71649 -10955007.61648  21020710.7474   21020719.2834   21020710.695
        55.0004         51.0004
 -16926873.61849 -13175319.62748  20761471.7524   20761475.2374   20761471.720
        54.0004         50.0004
 -15682308.24547 -12216845.15446  22310231.7254   22310241.8254   22310232.336
        46.0004         41.0004
  -3956196.58348  -3040731.05147  22704154.5234   22704161.6804   22704153.091
        48.0004         44.0004
  -8474704.18348  -6349670.90847  22946384.6274   22946395.9924   22946385.172
        48.0004         44.0004
 -14999752.13049 -11668992.76548  21490845.3744   21490851.5864   21490845.323
        54.0004         50.0004
 -10434918.91547  -8118213.00546  23415940.3544   23415944.4094   23415940.357
        46.0004         41.0004
     55314.23546                  24420702.6694                   24420701.605
        40.0004
     39578.14047     30372.21647  23847735.5134   23847739.0864   23847734.584
        47.0004         42.0004
 15  1 11  1  1 30.0000000  0  8G27G16G14G03G19G32G08G31
 -14139084.82649 -11000803.87448  21009526.4874   21009535.1754   21009526.355
        55.0004         51.0004
 -16882967.54449 -13141107.08948  20769826.4164   20769830.1684   20769826.647
        55.0004         50.0004
 -15632396.86347 -12177953.44247  22319730.8454   22319738.8604   22319730.583
        47.0004         45.0004
  -3986419.69148  -3064281.55747  22698403.7754   22698410.4534   22698403.387
        49.0004         44.0004
  -8571850.83248  -6425369.33247  22927896.9084   22927910.4764   22927897.937
        48.0004         44.0004
 -14975830.46149 -11650352.56748  21495397.5474   21495403.7874   21495398.511
        54.0004         49.0004
 -10440399.66247  -8122483.72446  23414896.5884   23414900.6964   23414896.520
        46.0004         41.0004
     46732.70247     35947.16447  23849095.8854   23849099.8164   23849096.507
        47.0004         42.0004
 15  1 11  1  2  0.0000000  0  9G27G16G14G03G19G32G08G31G04
 -14197496.38249 -11046319.18748  20998410.8184   20998419.4624   20998410.862
        55.0004         51.0004
 -16838670.56949 -13106589.94248  20778255.9184   20778259.8534   20778256.289
        55.0004         50.0004
 -15582041.71347 -12138716.38447  22329313.1264   22329322.5614   22329313.701
        47.0004         43.0004
  -4016207.41848  -3087492.77747  22692734.7534   22692742.5434   22692735.068
        49.0004         44.0004
  -8668957.23448  -6501036.37647  22909417.9094   22909430.9294   22909418.834
        49.0004         44.0004
 -14951549.32649 -11631432.26148  21500018.3314   21500024.1224   21500018.750
        54.0004         50.0004
 -10446089.77247  -8126917.57346  23413814.1494   23413818.0064   23413813.926
        46.0004         41.0004
     53745.06247     41411.35047  23850431.3624   23850434.8694   23850430.201
        47.0004         42.0004
   -570412.93948   -439537.01445  24772413.8794   24772430.8764   24772411.542
        49.0004         34.0004
 15  1 11  1  2 30.0000000  0  9G27G16G14G03G19G32G08G31G04
 -14255538.65249 -11091546.75748  20987365.9934   20987374.2704   20987365.594
        55.0004         51.0004
 -16793979.46749 -13071765.68848  20786760.0514   20786764.3704   20786759.736
        54.0004         50.0004
 -15531235.09048 -12099126.89547  22338982.9924   22338991.2404   22338982.248
        48.0004         42.0004
  -4045554.06648  -3110360.31447  22687151.1534   22687157.4364   22687150.582
        49.0004         44.0004
  -8766014.71048  -6576665.27947  22890948.4154   22890960.7934   22890948.778
        49.0004         44.0004
 -14926904.84649 -11612228.82848  21504707.5724   21504714.0204   21504708.058
        54.0004         49.0004
 -10451983.46747  -8131510.05647  23412692.8624   23412697.4794   23412693.190
        46.0004         42.0004
     60621.86047     46769.87347  23851740.3484   23851743.3004   23851739.651
        47.0004         42.0004
   -583312.95047   -449588.79645  24769956.7334   24769970.8734   24769958.894
        43.0004         34.0004
 15  1 11  1  3  0.0000000  0  9G27G16G14G03G19G32G08G31G04
 -14313210.09449 -11136485.37348  20976391.1024   20976399.6114   20976390.974
        55.0004         51.0004
 -16748898.14049 -13036637.35648  20795339.2684   20795342.6724   20795339.075
        54.0004         50.0004
 -15479980.06848 -12059188.22947  22348735.9824   22348744.2324   22348735.987
        48.0004         44.0004
  -4074461.15948  -3132885.35747  22681649.3634   22681657.1494   22681649.905
        49.0004         44.0004
  -8863021.56648  -6652254.73447  22872488.1994   22872500.5364   22872488.860
        49.0004         44.0004
 -14901899.94649 -11592744.56448  21509466.1234   21509471.9094   21509466.661
        54.0004         49.0004
 -10458081.91347  -8136262.11747  23411531.8714   23411536.3284   23411533.542
        46.0004         42.0004
     67363.20947     52022.83947  23853023.4364   23853025.6404   23853022.334
        47.0004         42.0004
   -596470.17346   -459840.99745  24767453.7584   24767466.7024   24767451.300
        40.0004         33.0004
 15  1 11  1  3 30.0000000  0  9G27G16G14G03G19G32G08G31G04
 -14370505.43849 -11181130.93248  20965487.9274   20965496.2074   20965487.863
        55.0004         51.0004
 -16703427.01149 -13001205.29048  20803992.0994   20803996.1784   20803992.340
        55.0004         50.0004
 -15428273.30848 -12018896.87047  22358573.4344   22358584.0344   22358575.517
        48.0004         43.0004
  -4102926.48748  -3155066.16047  22676233.8664   22676239.8974   22676232.828
        49.0004         44.0004
  -8959972.36648  -6727800.51247  22854039.1464   22854051.1564   22854040.587
        49.0004         44.0004
 -14876534.23049 -11572979.13548  21514292.9184   21514299.5204   21514293.477
        54.0004         49.0004
 -10464383.06847  -8141172.09146  23410333.3084   23410337.8054   23410334.367
        46.0004         41.0004
     73972.72147     57173.09547  23854280.0194   23854284.6234   23854280.292
        47.0004         42.0004
   -609882.67946   -470292.09845  24764902.7844   24764919.0534   24764902.041
        38.0004         34.0004
 15  1 11  1  4  0.0000000  0  9G27G16G14G03G19G32G08G31G04
 -14427425.71249 -11225484.22748  20954656.3914   20954664.7144   20954656.222
        55.0004         51.0004
 -16657572.38449 -12965474.39348  20812717.3424   20812721.5604   20812717.605
        55.0004         50.0004
 -15376121.36847 -11978259.17946  22368498.6334   22368507.3184   22368499.138
        47.0004         41.0004
  -4130954.10148  -3176905.88147  22670898.8034   22670906.6074   22670899.388
        49.0004         44.0004
  -9056868.14648  -6803303.38147  22835599.8654   22835613.2474   22835601.470
        49.0004         44.0004
 -14850813.38549 -11552936.97348  21519187.5514   21519193.7204   21519188.039
        54.0004         49.0004
 -10470890.58947  -8146242.87446  23409094.0644   23409099.5784   23409094.162
        46.0004         41.0004
     80447.99747     62218.72647  23855513.1324   23855516.9634   23855512.396
        47.0004         43.0004
   -623554.58446   -480945.37845  24762297.9574   24762313.2994   24762299.949
        38.0004         34.0004
 15  1 11  1  4 30.0000000  0  9G27G16G14G03G19G32G08G31G04
 -14483965.71549 -11269541.21048  20943897.2854   20943905.3794   20943897.177
        55.0004         51.0004
 -16611334.75449 -12929445.05448  20821516.1924   20821520.0454   20821516.840
        55.0004         50.0004
 -15323521.75947 -11937272.51947  22378506.7884   22378516.1584   22378508.421
        47.0004         43.0004
  -4158541.96948  -3198402.95947  22665650.5614   22665656.6484   22665649.653
        49.0004         44.0004
  -9153702.64848  -6878758.49347  22817172.8374   22817184.9574   22817173.776
        49.0004         44.0004
 -14824736.78249 -11532617.61048  21524149.1824   21524156.0644   21524149.779
        54.0004         49.0004
 -10477602.06847  -8151472.60646  23407817.3484   23407822.3534   23407818.224
        46.0004         41.0004
     86792.76847     67162.66647  23856720.0024   23856723.9924   23856720.552
        47.0004         43.0004
   -637484.20946   -491799.47145  24759649.5154   24759661.1654   24759647.057
        38.0004         33.0004
 15  1 11  1  5  0.0000000  0  9G27G16G14G03G19G32G08G31G04
 -14540125.09549 -11313301.61148  20933210.2504   20933218.6754   20933209.922
        55.0004         51.0004
 -16564719.30049 -12893121.30448  20830387.0294   20830390.9604   20830387.301
        55.0004         50.0004
 -15270477.43447 -11895939.38146  22388602.1624   22388611.1274   22388601.937
        46.0004         41.0004
  -4185692.75448  -3219559.46047  22660483.9144   22660490.2914   22660482.710
        49.0004         45.0004
  -9250475.90748  -6954165.89547  22798757.3834   22798769.5724   22798758.069
        49.0004         45.0004
 -14798308.89449 -11512024.51648  21529178.7684   21529185.3034   21529179.678
        54.0004         49.0004
 -10484519.90047  -8156863.12346  23406501.1964   23406505.3404   23406501.878
        46.0004         41.0004
     93006.24347     72004.29447  23857901.9744   23857905.4044   23857902.385
        47.0004         43.0004
                   -502856.68145                  24756959.9934   24756950.601
                        32.0004
 15  1 11  1  5 30.0000000  0  8G27G16G14G03G19G32G08G31
 -14595898.81149 -11356761.50148  20922596.5124   20922605.0824   20922596.148
        55.0004         51.0004
 -16517726.33149 -12856503.39248  20839329.6304   20839333.7534   20839329.911
        55.0004         50.0004
 -15216986.87247 -11854258.57347  22398781.8164   22398790.2234   22398781.170
        47.0004         45.0004
  -4212404.56148  -3240373.88447  22655400.9414   22655407.1504   22655400.509
        49.0004         45.0004
  -9347182.60148  -7029521.41847  22780355.5244   22780366.3074   22780355.814
        49.0004         45.0004
 -14771529.27949 -11491157.35848  21534274.4814   21534281.6794   21534275.157
        54.0004         49.0004
 -10491641.96947  -8162412.78446  23405145.4174   23405149.1104   23405145.809
        46.0004         41.0004
     99091.28247     76745.86847  23859060.0364   23859063.8914   23859059.878
        47.0004         43.0004
 15  1 11  1  6  0.0000000  0  8G27G16G14G03G19G32G08G31
 -14651287.12349 -11399921.08448  20912056.4584   20912064.5784   20912056.430
        55.0004         51.0004
 -16470361.97749 -12819596.07748  20848342.6934   20848346.6014   20848343.372
        55.0004         50.0004
 -15163054.57447 -11812233.88347  22409044.5334   22409054.6114   22409044.647
        47.0004         42.0004
  -4238680.74048  -3260848.85547  22650400.0004   22650407.0114   22650399.840
        49.0004         45.0004
  -9443822.73848  -7104825.08147  22761964.5524   22761976.0834   22761965.091
        50.0004         45.0004
 -14744403.00349 -11470020.06448  21539436.6794   21539443.6224   21539436.727
        54.0004         49.0004
 -10498971.33047  -8168123.97447  23403750.3564   23403755.3034   23403750.094
        46.0004         42.0004
    105046.50747     81386.27647  23860193.6644   23860196.7454   23860193.434
        47.0004         43.0004
 15  1 11  1  6 30.0000000  0  8G27G16G14G03G19G32G08G31
 -14706277.64649 -11442770.70448  20901592.0704   20901599.8894   20901591.858
        55.0004         51.0004
 -16422619.36049 -12782394.01648  20857427.5234   20857431.7604   20857427.810
        55.0004         50.0004
 -15108669.69647 -11769856.26547  22419394.3354   22419403.0324   22419395.321
        47.0004         42.0004
  -4264512.01548  -3280977.15447  22645485.5394   22645490.6554   22645483.842
        49.0004         44.0004
  -9540383.41148  -7180066.82647  22743590.5424   22743601.1234   22743590.939
        49.0004         45.0004
 -14716922.26049 -11448606.57148  21544665.9924   21544673.3984   21544666.263
        54.0004         49.0004
 -10506498.24347  -8173989.09447  23402318.0124   23402324.0694   23402319.544
        46.0004         42.0004
    110883.03447     85934.18547  23861304.6624   23861308.2964   23861304.417
        47.0004         43.0004
 15  1 11  1  7  0.0000000  0  8G27G16G14G03G19G32G08G31
 -14760883.93549 -11485320.93448  20891200.6194   20891208.7794   20891200.217
        55.0004         51.0004
 -16374517.35149 -12744911.91448  20866581.0834   20866585.0544   20866581.211
        54.0004         50.0004
 -15053849.75547 -11727139.46947  22429824.9444   22429835.5904   22429824.932
        47.0004         43.0004
  -4289915.13248  -3300771.80747  22640650.7064   22640657.3084   22640650.059
        49.0004         44.0004
  -9636877.71548  -7255256.86447  22725226.3494   22725238.8254   22725228.511
        50.0004         45.0004
 -14689105.42049 -11426931.17848  21549959.5884   21549966.4374   21549959.908
        54.0004         49.0004
 -10514239.08447  -8180020.92246  23400846.1284   23400849.5614   23400846.708
        46.0004         41.0004
    116585.91447     90377.94147  23862390.0444   23862392.1364   23862389.498
        47.0004         42.0004
 15  1 11  1  7 30.0000000  0  8G27G16G14G03G19G32G08G31
 -14815094.08249 -11527562.48848  20880884.4844   20880892.7244   20880884.345
        55.0004         51.0004
 -16326049.78549 -12707144.96848  20875804.2374   20875808.0184   20875804.398
        54.0004         50.0004
 -14998586.77947 -11684077.23046  22440340.3024   22440351.5664   22440341.935
        47.0004         41.0004
  -4314881.24648  -3320225.95347  22635899.0854   22635906.5944   22635899.201
        49.0004         44.0004
  -9733293.65348  -7330385.81947  22706879.0434   22706890.5024   22706879.996
        50.0004         45.0004
 -14660945.16549 -11404988.19748  21555318.2064   21555325.3034   21555318.419
        54.0004         49.0004
 -10522184.33847  -8186212.01946  23399334.9514   23399338.2274   23399334.375
        46.0004         41.0004
    122165.32447     94725.49547  23863450.8824   23863454.1654   23863451.006
        47.0004         42.0004
 15  1 11  1  8  0.0000000  0  8G27G16G14G03G19G32G08G31
 -14868907.33149 -11569494.76948  20870643.9984   20870652.2774   20870643.560
        55.0004         51.0004
 -16277221.27049 -12669096.76848  20885095.7564   20885099.6404   20885096.157
        54.0004         50.0004
 -14942884.53047 -11640673.35146  22450943.0994   22450951.9744   22450942.180
        46.0004         41.0004
  -4339412.83948  -3339341.49447  22631231.7204   22631238.8684   22631230.756
        49.0004         44.0004
  -9829630.11648  -7405452.84447  22688546.6634   22688558.9454   22688547.880
        50.0004         45.0004
 -14632445.52649 -11382780.74948  21560742.0294   21560748.8174   21560742.494
        54.0004         49.0004
 -10530335.87947  -8192563.87247  23397782.2884   23397787.6594   23397783.482
        46.0004         42.0004
    127620.70747     98976.41047  23864489.3604   23864491.3994   23864489.416
        47.0004         42.0004
 15  1 11  1  8 30.0000000  0  8G27G16G14G03G19G32G08G31
 -14922320.43049 -11611115.25148  20860479.9364   20860488.0194   20860479.913
        56.0004         51.0004
 -16228033.89349 -12630768.92848  20894455.9394   20894459.9194   20894456.168
        54.0004         50.0004
 -14886741.59247 -11596925.76647  22461627.1804   22461633.9174   22461626.942
        47.0004         43.0004
  -4363509.79048  -3358118.37447  22626646.6824   22626652.8114   22626645.160
        49.0004         44.0004
  -9925883.63548  -7480455.18747  22670229.9034   22670241.0634   22670230.086
        50.0004         45.0004
 -14603607.96249 -11360309.99248  21566229.8534   21566235.9164   21566229.844
        54.0004         49.0004
 -10538693.28047  -8199076.10546  23396191.5184   23396197.0644   23396192.713
        46.0004         41.0004
    132953.82547    103132.02447  23865504.4754   23865507.3354   23865503.743
        47.0004         42.0004
 15  1 11  1  9  0.0000000  0  8G27G16G14G03G19G32G08G31
 -14975327.71149 -11652419.51048  20850393.1934   20850401.2014   20850393.234
        56.0004         51.0004
 -16178487.80249 -12592161.57248  20903884.1594   20903888.2204   20903884.454
        54.0004         50.0004
 -14830156.19447 -11552833.46746  22472394.0864   22472401.4724   22472394.139
        47.0004         41.0004
  -4387169.54348  -3376554.57247  22622144.6474   22622151.1964   22622143.287
        49.0004         44.0004
 -10022048.25548  -7555388.28247  22651931.2424   22651941.9974   22651931.405
        50.0004         45.0004
 -14574431.46849 -11337575.12948  21571781.5714   21571788.4454   21571782.137
        54.0004         49.0004
 -10547253.24847  -8205746.22746  23394563.6234   23394568.3434   23394564.932
        46.0004         41.0004
    138169.50447    107196.15547  23866497.7914   23866500.0084   23866496.472
        47.0004         42.0004
 15  1 11  1  9 30.0000000  0  8G27G16G14G03G19G32G08G31
 -15027931.96049 -11693409.72148  20840382.8074   20840391.0044   20840382.813
        56.0004         51.0004
 -16128591.36849 -12553281.22648  20913379.4094   20913383.2174   20913379.674
        54.0004         50.0004
 -14773135.16547 -11508401.89547  22483245.2874   22483253.5674   22483245.115
        47.0004         43.0004
  -4410398.13348  -3394654.81147  22617723.4864   22617730.2964   22617723.227
        48.0004         43.0004
 -10118125.73348  -7630253.46747  22633647.0774   22633658.2684   22633647.293
        50.0004         45.0004
 -14544923.44049 -11314581.92848  21577397.0464   21577403.7864   21577397.336
        54.0004         49.0004
 -10556021.37547  -8212578.51646  23392894.6034   23392899.4514   23392895.460
        46.0004         41.0004
    143263.42247    111165.38347  23867465.8914   23867468.9514   23867465.877
        47.0004         42.0004
 15  1 11  1 10  0.0000000  0  9G27G16G14G03G19G32G08G31G04
 -15080127.10449 -11734081.15448  20830450.0574   20830458.3684   20830449.760
        56.0004         51.0004
 -16078343.80449 -12514127.27148  20922940.9344   20922944.9034   20922941.068
        54.0004         50.0004
 -14715675.28747 -11463628.15347  22494179.4164   22494188.4814   22494179.037
        46.0004         42.0004
  -4433192.68148  -3412416.82347  22613386.2274   22613392.9834   22613385.725
        48.0004         43.0004
 -10214109.87048  -7705045.89147  22615382.0664   22615392.6454   22615381.686
        50.0004         45.0004
 -14515082.63549 -11291329.42148  21583075.5844   21583081.5254   21583075.636
        54.0004         49.0004
 -10564993.92347  -8219570.12746  23391187.8654   23391192.2754   23391187.916
        46.0004         41.0004
    148240.24247    115043.39047  23868413.1294   23868416.8944   23868412.089
        47.0004         42.0004
                                                                  24727206.321

 15  1 11  1 10 30.0000000  0  9G27G16G14G03G19G32G08G31G04
 -15131912.70349 -11774433.44848  20820595.7254   20820603.4814   20820595.490
        56.0004         51.0004
 -16027750.46349 -12474703.87948  20932568.4744   20932572.1274   20932568.574
        54.0004         50.0004
 -14657780.36747 -11418515.66447  22505196.5024   22505205.7584   22505197.244
        47.0004         44.0004
  -4455555.90648  -3429842.75747  22609131.0014   22609136.8764   22609130.263
        48.0004         44.0004
 -10310000.04848  -7779765.11447  22597133.5004   22597144.6234   22597133.690
        50.0004         45.0004
 -14484913.28749 -11267820.90148  21588816.4814   21588823.3884   21588817.174
        54.0004         49.0004
 -10574172.97947  -8226722.62746  23389440.1794   23389444.6384   23389440.972
        46.0004         41.0004
    153099.20647    118829.55047  23869338.8894   23869340.1904   23869338.005
        47.0004         42.0004
                                                                  24723956.415

 15  1 11  1 11  0.0000000  0  9G27G16G14G03G19G32G08G31G04
 -15183286.15849 -11814464.60148  20810819.3134   20810827.4004   20810819.284
        56.0004         51.0004
 -15976814.02249 -12435013.13448  20942261.4324   20942264.9874   20942261.437
        54.0004         50.0004
 -14599450.99147 -11373064.65747  22516298.0854   22516305.5744   22516296.846
        47.0004         42.0004
  -4477488.40748  -3446933.06947  22604957.4544   22604963.6294   22604956.295
        48.0004         44.0004
 -10405792.81548  -7854408.42047  22578904.4784   22578915.1994   22578904.566
        50.0004         45.0004
 -14454417.44149 -11244057.95848  21594619.8084   21594626.6944   21594620.172
        54.0004         49.0004
 -10583558.40547  -8234035.92246  23387654.4584   23387659.5224   23387655.419
        46.0004         41.0004
    157841.61247    122524.89247  23870240.8994   23870243.4854   23870239.662
        47.0004         42.0004
   -138032.95148    -84349.81446  24720656.4254   24720672.0934   24720655.935
        48.0004         36.0004
 15  1 11  1 11 30.0000000  0  9G27G16G14G03G19G32G08G31G04
 -15234241.66449 -11854170.08448  20801122.9414   20801130.8824   20801123.283
        56.0004         51.0004
 -15925534.02249 -12395054.69248  20952020.2224   20952023.5784   20952020.157
        54.0004         50.0004
 -14540683.94847 -11327272.42647  22527479.8674   22527488.7994   22527480.101
        47.0004         43.0004
  -4498987.59548  -3463685.71947  22600864.8584   22600872.8124   22600864.329
        48.0004         44.0004
 -10501481.90448  -7928970.94447  22560695.6004   22560706.6884   22560696.214
        50.0004         46.0004
 -14423594.08949 -11220039.82948  21600485.1674   21600492.0554   21600485.771
        54.0004         49.0004
 -10593147.09247  -8241507.62946  23385829.5594   23385834.6404   23385829.669
        46.0004         41.0004
    162472.25247    126133.12747  23871120.9484   23871125.4214   23871121.695
        47.0004         43.0004
   -155643.06247    -98071.82045  24717304.3774   24717318.1494   24717303.766
        44.0004         35.0004
 15  1 11  1 12  0.0000000  0  9G27G16G14G03G19G32G08G31G04
 -15284780.76749 -11893551.09248  20791505.6604   20791513.4614   20791505.513
        56.0004         51.0004
 -15873917.63149 -12354834.11648  20961842.1964   20961845.9024   20961842.235
        54.0004         50.0004
 -14481485.38947 -11281143.92346  22538745.5214   22538754.3834   22538745.637
        47.0004         39.0004
  -4520058.25448  -3480104.46247  22596856.0224   22596863.3754   22596855.694
        49.0004         44.0004
 -10597068.49648  -8003453.59747  22542504.9524   22542516.3884   22542505.435
        50.0004         45.0004
 -14392449.37149 -11195771.28348  21606411.9994   21606419.0684   21606412.207
        54.0004         49.0004
 -10602942.83247  -8249140.68546  23383965.9344   23383970.3724   23383967.068
        46.0004         41.0004
    166988.28147    129652.05147  23871980.2534   23871984.1974   23871979.974
        47.0004         42.0004
   -173521.52346   -112002.97145  24713902.3254   24713918.1004   24713903.267
        41.0004         35.0004
 15  1 11  1 12 30.0000000  0  9G27G16G14G03G19G32G08G31G04
 -15334897.08249 -11932602.66248  20781968.5854   20781976.5634   20781968.296
        56.0004         51.0004
 -15821963.99049 -12314350.74848  20971728.4084   20971732.2234   20971728.554
        54.0004         49.0004
 -14421852.07747 -11234676.72846  22550093.0054   22550101.2064   22550094.512
        45.0004         41.0004
  -4540697.18848  -3496186.80147  22592929.0664   22592935.3034   22592927.449
        49.0004         44.0004
 -10692545.59948  -8077850.93847  22524336.3324   22524347.5054   22524336.533
        50.0004         45.0004
 -14360981.58149 -11171250.99648  21612400.1844   21612406.5714   21612400.165
        54.0004         49.0004
 -10612941.63647  -8256931.94246  23382063.1144   23382067.1414   23382062.487
        46.0004         41.0004
    171394.97047    133085.78147  23872817.5434   23872822.5604   23872818.817
        47.0004         42.0004
   -191664.77146   -126140.37145  24710448.5694   24710466.5924   24710450.301
        40.0004         35.0004
 15  1 11  1 13  0.0000000  0  9G27G16G14G03G19G32G08G31G04
 -15384586.98649 -11971321.95948  20772512.8294   20772521.0344   20772512.720
        56.0004         51.0004
 -15769675.05149 -12273606.11248  20981678.8594   20981682.2544   20981679.343
        54.0004         49.0004
 -14361784.04547 -11187870.84247  22561524.4114   22561533.5094   22561525.081
        47.0004         44.0004
  -4560903.96248  -3511932.38847  22589084.2864   22589090.6904   22589083.278
        49.0004         44.0004
 -10787909.14948  -8152159.79647  22506188.5774   22506199.9354   22506189.299
        50.0004         45.0004
 -14329191.73848 -11146479.76048  21618449.3194   21618456.4714   21618449.666
        53.0004         49.0004
 -10623142.11247  -8264880.36546  23380121.8024   23380126.5954   23380122.129
        46.0004         41.0004
    175694.76347    136436.21647  23873637.8964   23873641.4784   23873638.157
        47.0004         43.0004
   -210072.09346   -140483.59646  24706948.6094   24706960.0184   24706946.896
        40.0004         36.0004
 15  1 11  1 13 30.0000000  0  9G27G16G14G03G19G32G08G31G04
 -15433852.70349 -12009710.71748  20763137.5524   20763145.7954   20763137.460
        56.0004         51.0004
 -15717058.42149 -12232606.12948  20991691.5594   20991694.8884   20991691.865
        54.0004         49.0004
 -14301287.19247 -11140730.84247  22573036.3634   22573047.0704   22573036.757
        47.0004         44.0004
  -4580684.14348  -3527345.55647  22585320.2604   22585326.5284   22585319.083
        49.0004         45.0004
 -10883160.63448  -8226381.30047  22488062.6574   22488072.9154   22488063.408
        50.0004         45.0004
 -14297086.89448 -11121463.07148  21624558.8554   21624565.5434   21624559.096
        53.0004         49.0004
 -10633549.19547  -8272989.77646  23378141.4294   23378146.0224   23378142.362
        46.0004         41.0004
    179884.17248    139700.63747  23874435.6004   23874437.3994   23874433.864
        48.0004         43.0004
   -228748.64746   -155036.56346  24703394.0884   24703407.2464   24703394.380
        40.0004         36.0004
 15  1 11  1 14  0.0000000  0  9G27G16G14G03G19G32G08G31G04
 -15482687.04349 -12047763.33748  20753844.8314   20753852.9214   20753844.627
        56.0004         51.0004
 -15664112.10549 -12191349.25348  21001766.8084   21001770.3724   21001766.923
        54.0004         49.0004
 -14240357.57047 -11093253.59047  22584631.8084   22584641.5894   22584630.702
        46.0004         42.0004
  -4600033.68848  -3542423.15147  22581637.9454   22581644.1504   22581637.585
        49.0004         45.0004
 -10978292.31048  -8300509.49647  22469960.0094   22469970.3104   22469960.241
        50.0004         46.0004
 -14264664.41848 -11096198.87248  21630728.7134   21630735.8054   21630729.383
        53.0004         49.0004
 -10644157.65247  -8281256.08746  23376123.2074   23376126.7444   23376122.297
        46.0004         41.0004
    183969.36648    142883.84747  23875211.9844   23875216.6154   23875211.099
        48.0004         43.0004
   -247690.06046   -169795.97746  24699787.9194   24699802.0454   24699785.424
        40.0004         36.0004
 15  1 11  1 14 30.0000000  0  9G27G16G14G03G19G32G08G31G04
 -15531092.00149 -12085481.38748  20744633.8204   20744641.6164   20744633.711
        56.0004         51.0004
 -15610843.92149 -12149841.55248  21011903.1044   21011907.3434   21011903.737
        54.0004         49.0004
 -14179000.74248 -11045443.46447  22596307.2994   22596317.9104   22596308.269
        48.0004         42.0004
  -4618957.84548  -3557169.30547  22578036.7384   22578043.0724   22578036.294
        49.0004         44.0004
 -11073305.61648  -8374545.43747  22451879.3624   22451889.4114   22451879.986
        50.0004         46.0004
 -14231930.96248 -11070692.35648  21636957.7684   21636964.8594   21636957.940
        53.0004         49.0004
 -10654972.06747  -8289682.91546  23374066.3214   23374068.8254   23374065.752
        46.0004         41.0004
    187947.27448    145983.47347  23875970.1534   23875973.5794   23875969.439
        48.0004         43.0004
   -266901.31946   -184765.65046  24696135.3684   24696147.8004   24696131.269
        41.0004         36.0004
 15  1 11  1 15  0.0000000  0  9G27G16G14G03G19G32G08G31G04
 -15579062.76549 -12122861.10348  20735505.0294   20735512.7864   20735504.426
        56.0004         51.0004
 -15557254.21749 -12108083.32948  21022101.4384   21022104.7474   21022101.456
        54.0004         49.0004
 -14117215.68847 -10997299.70246  22608064.0354   22608074.2414   22608065.267
        46.0004         39.0004
  -4637455.10648  -3571582.80047  22574517.2554   22574522.5364   22574515.953
        49.0004         45.0004
 -11168195.19948  -8448484.98747  22433821.8164   22433832.1034   22433822.841
        50.0004         46.0004
 -14198886.45548 -11044943.46248  21643245.9904   21643252.6864   21643246.454
        53.0004         49.0004
 -10665990.00847  -8298268.30546  23371968.8104   23371971.7734   23371967.923
        46.0004         41.0004
    191821.52148    149002.32447  23876707.2674   23876711.1164   23876706.483
        48.0004         43.0004
   -286380.06446   -199943.71046  24692425.1234   24692439.5684   24692424.881
        41.0004         36.0004
 15  1 11  1 15 30.0000000  0  9G27G16G14G03G19G32G08G31G04
 -15626596.24949 -12159900.08448  20726459.8654   20726467.2494   20726460.004
        56.0004         51.0004
 -15503345.21149 -12066076.30148  21032359.5594   21032363.3634   21032359.937
        54.0004         49.0004
 -14055002.51648 -10948822.27247  22619904.5544   22619913.4404   22619904.285
        48.0004         45.0004
  -4655525.60548  -3585663.75647  22571078.0564   22571084.0004   22571078.092
        49.0004         45.0004
 -11262957.06448  -8522325.00247  22415788.1194   22415798.7324   22415789.201
        50.0004         46.0004
 -14165532.36149 -11018953.33648  21649592.9024   21649600.1444   21649593.886
        54.0004         49.0004
 -10677210.48447  -8307011.53846  23369832.8404   23369837.4024   23369833.755
        46.0004         41.0004
    195594.40948    151942.18647  23877424.4664   23877427.5664   23877424.745
        48.0004         43.0004
   -306126.20846   -215330.14846  24688666.8834   24688683.1554   24688667.343
        41.0004         36.0004
 15  1 11  1 16  0.0000000  0  9G27G16G14G03G19G32G08G31G04
 -15673691.14949 -12196597.32148  20717498.0594   20717505.3964   20717497.737
        56.0004         52.0004
 -15449121.37749 -12023823.94848  21042678.1904   21042681.4874   21042678.561
        54.0004         49.0004
 -13992364.22547 -10900013.71446  22631824.8354   22631832.1564   22631823.563
        47.0004         40.0004
  -4673171.32848  -3599413.69647  22567720.4604   22567727.8944   22567719.621
        49.0004         44.0004
 -11357589.44448  -8596064.11047  22397780.5304   22397790.9434   22397781.197
        50.0004         46.0004
 -14131872.05149 -10992724.59948  21655998.4274   21656006.0234   21655999.263
        54.0004         49.0004
 -10688634.35547  -8315913.26647  23367661.0304   23367664.2334   23367660.204
        46.0004         42.0004
    199266.13748    154803.22547  23878123.5754   23878127.2114   23878122.452
        48.0004         43.0004
   -326140.85846   -230925.83846  24684858.7424   24684869.7674   24684860.184
        41.0004         37.0004
 15  1 11  1 16 30.0000000  0  9G27G16G14G03G19G32G08G31G04
 -15720345.99949 -12232951.65048  20708619.4004   20708627.3094   20708619.078
        56.0004         52.0004
 -15394586.31849 -11981329.07748  21053055.5434   21053059.0884   21053055.549
        54.0004         49.0004
 -13929302.08047 -10850874.60947  22643823.7974   22643836.0824   22643823.560
        47.0004         42.0004
  -4690394.06048  -3612834.04647  22564442.3444   22564450.6364   22564441.932
        49.0004         44.0004
 -11452090.10148  -8669700.58647  22379797.7464   22379807.7514   22379798.473
        51.0004         46.0004
 -14097908.74949 -10966259.75648  21662461.7484   21662468.8584   21662462.513
        54.0004         49.0004
 -10700262.37247  -8324974.03247  23365446.4914   23365451.2564   23365445.888
        46.0004         42.0004
    202837.36948    157585.95047  23878803.3374   23878805.8014   23878803.373
        48.0004         43.0004
   -346425.69646   -246732.07446  24681000.3564   24681013.8584   24681000.039
        41.0004         37.0004
 15  1 11  1 17  0.0000000  0  9G27G16G14G03G19G32G08G31G04
 -15766558.30249 -12268961.13848  20699825.3654   20699833.3274   20699825.096
        56.0004         52.0004
 -15339743.31949 -11938594.25248  21063491.5634   21063495.7584   21063491.989
        54.0004         49.0004
 -13865817.35647 -10801406.33247  22655905.8424   22655916.7214   22655905.279
        46.0004         43.0004
  -4707194.55248  -3625925.40247  22561246.1294   22561252.5614   22561244.578
        49.0004         44.0004
 -11546455.63448  -8743231.77447  22361840.3934   22361850.3514   22361840.975
        51.0004         46.0004
 -14063644.58149 -10939560.49248  21668982.1784   21668988.8844   21668982.337
        54.0004         49.0004
 -10712094.03947  -8334193.51147  23363196.5594   23363198.9724   23363195.987
        46.0004         42.0004
    206309.20148    160291.21747  23879463.4484   23879467.3534   23879463.463
        48.0004         43.0004
   -366980.76646   -262748.89346  24677087.0824   24677100.4324   24677087.557
        41.0004         37.0004
 15  1 11  1 17 30.0000000  0  9G27G16G14G03G19G32G08G31G04
 -15812322.76349 -12304621.66448  20691116.8134   20691124.6154   20691116.686
        56.0004         52.0004
 -15284592.30149 -11895619.40848  21073986.8474   21073990.6724   21073986.743
        54.0004         49.0004
 -13801908.52147 -10751607.61746  22668066.9094   22668079.0164   22668067.277
        44.0004         39.0004
  -4723570.77048  -3638686.14347  22558130.0954   22558137.2184   22558128.588
        49.0004         45.0004
 -11640680.01248  -8816652.95047  22343909.0714   22343918.5554   22343910.532
        51.0004         46.0004
 -14029078.83549 -10912626.22148  21675559.7554   21675566.9294   21675559.732
        54.0004         49.0004
 -10724126.40247  -8343569.37146  23360905.8954   23360909.0604   23360905.880
        46.0004         41.0004
    209686.48847    162922.83647  23880106.6414   23880108.9614   23880106.672
        47.0004         43.0004
   -387803.33847   -278974.10946  24673125.7814   24673139.0474   24673122.349
        42.0004         37.0004
 15  1 11  1 18  0.0000000  0  9G27G16G14G03G19G32G08G31G04
 -15857638.30349 -12339932.38348  20682493.6704   20682501.4014   20682493.406
        56.0004         52.0004
 -15229137.37249 -11852407.75948  21084539.7774   21084542.7814   21084540.366
        54.0004         49.0004
 -13737577.84247 -10701479.93846  22680310.2874   22680320.7984   22680310.795
        46.0004         39.0004
  -4739524.95148  -3651118.04447  22555093.6654   22555100.3804   22555092.921
        49.0004         44.0004
 -11734761.73748  -8889962.98947  22326006.0684   22326015.7694   22326007.229
        51.0004         46.0004
 -13994215.17349 -10885459.80748  21682194.3854   21682201.3674   21682194.758
        54.0004         49.0004
 -10736360.40647  -8353102.34047  23358577.7494   23358581.2384   23358577.219
        46.0004         42.0004
    212968.86347    165480.47047  23880731.2054   23880735.2654   23880730.894
        47.0004         43.0004
   -408895.04146   -295409.04546  24669111.7564   24669123.6394   24669111.492
        41.0004         36.0004
 15  1 11  1 18 30.0000000  0  9G27G16G14G03G19G32G08G31G04
 -15902503.47549 -12374892.16148  20673955.8474   20673963.5894   20673955.683
        56.0004         52.0004
 -15173382.55849 -11808962.42748  21095149.7124   21095152.9474   21095150.017
        54.0004         49.0004
 -13672827.49647 -10651025.46447  22692631.1274   22692641.5444   22692630.769
        45.0004         42.0004
  -4755058.95648  -3663222.49747  22552137.2404   22552143.6774   22552135.961
        49.0004         44.0004
 -11828698.46548  -8963160.03647  22308129.5814   22308139.4214   22308130.987
        51.0004         46.0004
 -13959056.72049 -10858063.69248  21688884.5974   21688891.4864   21688885.101
        54.0004         49.0004
 -10748796.66547  -8362792.92147  23356210.5014   23356215.8464   23356211.971
        46.0004         42.0004
    216156.91947    167964.61747  23881337.9404   23881341.5904   23881339.367
        47.0004         42.0004
   -430256.87746   -312054.49646  24665045.1924   24665060.8544   24665047.915
        41.0004         36.0004
 15  1 11  1 19  0.0000000  0  9G27G16G14G03G19G32G08G31G04
 -15946915.58249 -12409498.90248  20665504.2364   20665512.1034   20665504.122
        56.0004         52.0004
 -15117330.41849 -11765285.40948  21105815.6064   21105819.2524   21105816.009
        54.0004         49.0004
 -13607658.64847 -10600244.57747  22705031.6034   22705043.2154   22705032.139
        47.0004         44.0004
  -4770173.34348  -3674999.98447  22549261.8974   22549267.6504   22549261.421
        49.0004         44.0004
 -11922486.49148  -9036241.22447  22290282.5474   22290292.1614   22290283.607
        51.0004         46.0004
 -13923605.26349 -10830439.25648  21695631.0004   21695637.9164   21695631.700
        54.0004         49.0004
 -10761434.47247  -8372640.54947  23353806.3494   23353809.1664   23353806.441
        47.0004         42.0004
    219252.51347    170376.70047  23881926.8504   23881929.6794   23881927.246
        47.0004         42.0004
   -451888.88446   -328910.45245  24660932.5654   24660939.2674   24660928.998
        40.0004         35.0004
 15  1 11  1 19 30.0000000  0  9G27G16G14G03G19G32G08G31G04
 -15990872.52749 -12443750.96748  20657139.6164   20657147.3314   20657139.287
        56.0004         52.0004
 -15060984.39749 -11721379.39248  21116537.7974   21116541.4464   21116538.323
        54.0004         49.0004
 -13542072.41547 -10549138.64347  22717512.7644   22717524.1734   22717514.055
        46.0004         43.0004
  -4784869.34048  -3686451.44947  22546464.6994   22546471.4304   22546463.268
        49.0004         44.0004
 -12016122.91748  -9109204.28747  22272464.0504   22272472.7924   22272465.024
        51.0004         47.0004
 -13887863.45748 -10802588.57948  21702432.3204   21702439.3974   21702432.745
        53.0004         49.0004
 -10774273.88447  -8382645.26047  23351363.5314   23351366.9144   23351363.216
        47.0004         42.0004
    222257.20047    172717.96547  23882498.2724   23882502.3324   23882499.627
        46.0004         42.0004
   -473791.60146   -345977.39945  24656759.5864   24656776.0144   24656759.334
        40.0004         35.0004
 15  1 11  1 20  0.0000000  0  9G27G16G14G03G19G32G08G31G04
 -16034372.49249 -12477646.94848  20648862.1874   20648869.3514   20648861.890
        56.0004         52.0004
 -15004347.91649 -11677247.04148  21127315.4834   21127319.0364   21127315.706
        54.0004         49.0004
 -13476070.65747 -10497708.90046  22730076.6264   22730084.4994   22730071.785
        45.0004         37.0004
  -4799148.37648  -3697578.04047  22543747.4704   22543754.2694   22543746.968
        49.0004         44.0004
 -12109605.36648  -9182047.34047  22254674.1774   22254683.3324   22254675.168
        51.0004         46.0004
 -13851834.01249 -10774513.76948  21709288.9594   21709295.6304   21709289.578
        54.0004         49.0004
 -10787314.87047  -8392807.07547  23348879.7714   23348885.7524   23348881.386
        46.0004         42.0004
    225171.72447    174988.97147  23883052.6554   23883056.3214   23883051.411
        46.0004         42.0004
   -495965.50146   -363255.64946  24652542.2494   24652554.4834   24652542.129
        40.0004         36.0004
 15  1 11  1 20 30.0000000  0  9G27G16G14G03G19G32G08G31G04
 -16077408.48349 -12511181.38948  20640672.2094   20640679.5844   20640672.258
        56.0004         52.0004
 -14947419.30949 -11632887.06448  21138148.9514   21138152.0044   21138148.987
        54.0004         49.0004
 -13409650.68848 -10445953.16547  22742712.7794   22742722.9684   22742712.871
        48.0004         42.0004
  -4813006.76548  -3708376.83147  22541110.3574   22541118.2764   22541109.184
        49.0004         44.0004
 -12202925.70148  -9254764.05647  22236915.5294   22236925.3574   22236917.219
        51.0004         47.0004
 -13815514.54948 -10746212.97948  21716200.1254   21716207.0574   21716200.970
        53.0004         49.0004
 -10800552.45147  -8403122.04047  23346361.1664   23346367.3914   23346361.772
        46.0004         42.0004
    228002.45747    177194.68647  23883591.4864   23883596.4714   23883591.987
        46.0004         42.0004
   -518406.09846   -380741.72346  24648271.2414   24648285.6944   24648271.531
        41.0004         36.0004
 15  1 11  1 21  0.0000000  0  9G27G16G14G03G19G32G08G31G04
 -16119985.96649 -12544358.54648  20632569.8994   20632577.3074   20632569.890
        56.0004         52.0004
 -14890209.08049 -11588307.64548  21149035.5914   21149038.9134   21149035.563
        54.0004         49.0004
                                                                  22755430.214

  -4826453.28148  -3718854.69647  22538552.0084   22538558.4584   22538551.494
        49.0004         44.0004
 -12296088.49148  -9327358.02747  22219187.0904   22219196.1184   22219188.209
        51.0004         47.0004
 -13778915.05548 -10717693.97448  21723164.9474   21723172.1364   21723165.065
        53.0004         49.0004
 -10813993.86847  -8413595.87647  23343803.4094   23343807.8664   23343804.058
        47.0004         42.0004
    230742.87147    179330.00946  23884114.3694   23884117.1814   23884113.423
        46.0004         41.0004
   -541121.36446   -398441.85146  24643949.6914   24643962.9744   24643949.617
        41.0004         36.0004
 15  1 11  1 21 30.0000000  0  9G27G16G14G03G19G32G08G31G04
 -16162098.11949 -12577173.11248  20624556.3104   20624563.4584   20624556.243
        56.0004         52.0004
 -14832716.04949 -11543507.85348  21159975.4034   21159979.6214   21159975.818
        54.0004         49.0004
                                                                  22768226.949

  -4839484.37648  -3729008.84547  22536072.1364   22536079.1164   22536071.723
        49.0004         45.0004
 -12389086.01148  -9399823.23147  22201490.0204   22201498.2494   22201491.159
        51.0004         47.0004
 -13742033.27848 -10688955.00948  21730183.1784   21730190.1814   21730183.700
        53.0004         48.0004
 -10827634.26647  -8424224.74547  23341208.2404   23341212.7194   23341208.166
        47.0004         42.0004
    233399.26647    181399.86547  23884618.7614   23884623.5734   23884618.588
        46.0004         42.0004
   -564106.91946   -416352.58546  24639574.4694   24639586.1874   24639575.291
        41.0004         36.0004
 15  1 11  1 22  0.0000000  0  9G27G16G14G03G19G32G08G31G04
 -16203741.53349 -12609622.42748  20616631.5554   20616639.0574   20616631.507
        56.0004         52.0004
 -14774941.90949 -11498489.02348  21170970.0514   21170973.5694   21170970.249
        54.0004         49.0004
 -16358764.58448   -759741.56546  22781101.0514   22781110.1044   22781101.514
        53.0004         36.0004
  -4852099.91448  -3738839.20747  22533671.9474   22533679.2234   22533671.083
        49.0004         45.0004
 -12481913.92448  -9472156.20247  22183825.3694   22183834.5674   22183826.107
        51.0004         47.0004
 -13704870.40448 -10659997.01648  21737254.7274   21737261.9004   21737255.686
        53.0004         48.0004
 -10841472.09547  -8435007.46247  23338574.6814   23338578.5564   23338575.607
        47.0004         42.0004
    235974.33447    183406.37546  23885109.1244   23885111.8434   23885108.836
        46.0004         41.0004
   -587361.83546   -434473.21445  24635148.7914   24635164.3774   24635146.830
        40.0004         35.0004
 15  1 11  1 22 30.0000000  0  9G27G16G14G03G19G32G08G31G04
 -16244915.41149 -12641705.86248  20608796.7404   20608804.2174   20608796.621
        56.0004         52.0004
 -14716890.89848 -11453254.44648  21182016.5264   21182020.0114   21182017.148
        53.0004         49.0004
 -16290699.73748   -706704.50547  22794053.5604   22794065.3524   22794053.590
        50.0004         44.0004
  -4864302.48948  -3748347.76347  22531349.9914   22531356.5534   22531348.802
        49.0004         45.0004
 -12574570.83848  -9544356.05847  22166192.5924   22166201.9394   22166193.874
        51.0004         47.0004
 -13667430.16748 -10630822.88648  21744379.7484   21744386.6164   21744380.443
        53.0004         48.0004
 -10855508.42947  -8445944.85546  23335904.3364   23335908.2214   23335904.004
        46.0004         41.0004
    238468.15247    185349.55447  23885584.0154   23885587.7784   23885583.604
        46.0004         42.0004
   -610887.73146   -452804.96945  24630672.8404   24630683.8704   24630672.387
        39.0004         34.0004
 15  1 11  1 23  0.0000000  0  9G27G16G14G03G19G32G08G31G04
 -16285619.22449 -12673423.02448  20601050.8874   20601057.8574   20601050.644
        56.0004         52.0004
 -14658567.92848 -11407807.95548  21193114.6934   21193118.6404   21193115.207
        53.0004         49.0004
 -16222228.42647   -653350.91746  22807084.5424   22807095.1284   22807083.633
        47.0004         40.0004
  -4876094.80848  -3757536.63347  22529104.3824   22529112.3864   22529103.677
        49.0004         44.0004
 -12667055.41848  -9616421.65847  22148593.5554   22148602.0094   22148594.394
        51.0004         46.0004
 -13629716.61048 -10601435.80248  21751556.3864   21751563.9624   21751556.517
        53.0004         48.0004
 -10869744.61347  -8457037.98647  23333195.7304   23333198.5244   23333194.694
        46.0004         42.0004
    240880.09147    187228.94246  23886041.9174   23886046.1104   23886041.265
        46.0004         41.0004
   -634686.36146   -471349.29845  24626143.4774   24626155.8364   24626143.343
        40.0004         35.0004
 15  1 11  1 23 30.0000000  0  9G27G16G14G03G19G32G08G31G04
 -16325851.68349 -12704772.89048  20593394.5494   20593401.8944   20593393.939
        56.0004         52.0004
 -14599976.86448 -11362152.55348  21204264.4064   21204268.2724   21204264.520
        53.0004         49.0004
 -16153352.51747   -599681.94446  22820189.5944   22820203.3434   22820190.821
        45.0004         37.0004
  -4887478.92048  -3766407.41347  22526939.5214   22526946.0314   22526938.705
        49.0004         45.0004
 -12759364.08748  -9688349.97047  22131027.2664   22131036.2584   22131028.072
        51.0004         46.0004
 -13591732.85548 -10571838.16048  21758784.7574   21758792.0194   21758785.297
        53.0004         48.0004
 -10884180.91947  -8468287.04046  23330447.0434   23330452.6544   23330448.117
        46.0004         41.0004
    243211.55147    189045.64446  23886486.6614   23886489.6744   23886487.355
        46.0004         41.0004
   -658758.58646   -490106.82245  24621562.9174   24621575.4214   24621563.527
        40.0004         35.0004
 15  1 11  1 24  0.0000000  0  9G27G16G14G03G19G32G08G31G04
 -16365606.10349 -12735750.26648  20585829.2224   20585836.6814   20585829.078
        56.0004         52.0004
 -14541116.20348 -11316287.08748  21215465.4294   21215468.8404   21215465.622
        53.0004         49.0004
 -16084068.38047   -545694.67946  22833376.1354   22833387.6054   22833377.169
        42.0004         37.0004
  -4898451.38048  -3774957.45047  22524850.5564   22524859.4984   22524850.123
        49.0004         45.0004
 -12851489.53948  -9760135.37447  22113496.1404   22113504.7684   22113496.695
        52.0004         47.0004
 -13553476.73648 -10542028.28348  21766064.6264   21766071.4604   21766065.040
        53.0004         48.0004
 -10898812.45047  -8479688.25947  23327663.3424   23327667.5644   23327663.327
        46.0004         42.0004
    245468.40947    190804.19646  23886916.5424   23886919.6724   23886916.173
        46.0004         41.0004
   -683100.14546   -509074.22245  24616930.9074   24616940.4834   24616931.393
        39.0004         34.0004
 15  1 11  1 24 30.0000000  0  8G27G16G14G03G19G32G08G31
 -16404874.23149 -12766348.71648  20578356.8134   20578364.0544   20578356.632
        56.0004         52.0004
 -14481982.94548 -11270209.19948  21226718.3734   21226721.1834   21226718.577
        53.0004         49.0004
 -16014371.41947   -491385.45747  22846637.6774   22846648.9434   22846638.852
        46.0004         43.0004
  -4909007.27048  -3783182.87447  22522842.5624   22522849.8314   22522841.668
        49.0004         44.0004
 -12943423.54848  -9831771.99447  22096000.9534   22096009.7964   22096002.246
        52.0004         47.0004
 -13514944.50448 -10512003.25748  21773397.2294   21773404.3384   21773398.143
        53.0004         48.0004
 -10913632.69947  -8491236.49347  23324844.1684   23324847.9534   23324844.282
        46.0004         42.0004
    247657.94847    192510.27647  23887332.0144   23887336.5054   23887332.833
        46.0004         42.0004
 15  1 11  1 25  0.0000000  0  8G27G16G14G03G19G32G08G31
 -16443670.76849 -12796579.69648  20570974.3174   20570981.2184   20570974.301
        56.0004         52.0004
 -14422597.05048 -11223934.45948  21238019.1234   21238022.5114   21238019.060
        53.0004         49.0004
 -15944281.06047   -436769.97346  22859975.3384   22859988.7154   22859976.883
        46.0004         41.0004
  -4919164.61748  -3791097.74547  22520908.9594   22520915.8094   22520908.792
        49.0004         44.0004
 -13035179.21048  -9903269.58847  22078540.8324   22078548.8524   22078541.296
        52.0004         47.0004
 -13476155.38248 -10481778.06148  21780778.4754   21780785.8444   21780778.446
        53.0004         48.0004
 -10928658.03147  -8502944.54147  23321983.4754   23321988.7764   23321984.248
        46.0004         42.0004
    249765.15347    194152.18946  23887734.5814   23887737.2074   23887734.055
        46.0004         41.0004
 15  1 11  1 25 30.0000000  0  8G27G16G14G03G19G32G08G31
 -16481984.24749 -12826434.27248  20563683.5484   20563690.4534   20563683.558
        56.0004         52.0004
 -14362951.91248 -11177457.70948  21249368.4674   21249372.1264   21249369.318
        53.0004         48.0004
 -15873788.52247   -381840.94846  22873389.8804   22873402.6474   22873391.662
        46.0004         41.0004
  -4928915.19648  -3798695.66547  22519054.6374   22519061.9684   22519054.026
        49.0004         45.0004
 -13126744.20648  -9974618.77947  22061116.4544   22061124.1024   22061117.086
        52.0004         47.0004
 -13437102.32948 -10451347.21148  21788210.0294   21788217.5564   21788210.562
        53.0004         48.0004
 -10943878.57047  -8514804.70746  23319086.6364   23319092.6904   23319088.223
        46.0004         41.0004
    251801.34247    195738.78947  23888121.8394   23888126.8134   23888121.738
        46.0004         42.0004
 15  1 11  1 26  0.0000000  0  8G27G16G14G03G19G32G08G31
 -16519815.04449 -12855912.72548  20556484.1604   20556491.6744   20556483.858
        56.0004         52.0004
 -14303053.15848 -11130783.34648  21260766.9924   21260770.9184   21260766.725
        53.0004         48.0004
 -15802898.47547   -326602.35247  22886880.6934   22886893.1534   22886881.655
        46.0004         43.0004
  -4938262.75148  -3805979.53747  22517274.6614   22517282.8064   22517274.728
        49.0004         45.0004
 -13218116.99048 -10045818.02847  22043728.2834   22043736.5234   22043729.344
        52.0004         47.0004
 -13397790.30448 -10420714.56348  21795691.0034   21795697.9284   21795691.267
        53.0004         48.0004
 -10959296.32047  -8526818.52447  23316152.9934   23316157.6464   23316154.237
        46.0004         42.0004
    253764.77347    197268.70246  23888495.9174   23888499.7874   23888495.727
        46.0004         41.0004
 15  1 11  1 26 30.0000000  0  7G27G16G03G19G32G08G31
 -16557140.99949 -12884997.79948  20549381.0994   20549388.4924   20549380.774
        56.0004         52.0004
 -14242883.65448 -11083897.99948  21272216.8764   21272220.8864   21272217.521
        53.0004         48.0004
  -4947188.40748  -3812934.64347  22515577.5824   22515584.1834   22515576.143
        49.0004         44.0004
 -13309274.90948 -10116849.91247  22026381.0204   22026389.0114   22026382.067
        52.0004         47.0004
 -13358201.52448 -10389866.25948  21803225.0274   21803232.4144   21803225.243
        53.0004         48.0004
 -10974890.86147  -8538970.14647  23313187.3734   23313190.3204   23313187.468
        46.0004         42.0004
    255677.42147    198759.04346  23888859.0084   23888861.3094   23888858.638
        46.0004         41.0004
 15  1 11  1 27  0.0000000  0  8G27G16G14G03G19G32G08G31
 -16594005.27849 -12913723.12548  20542366.2154   20542373.1184   20542365.588
        56.0004         52.0004
 -14182491.75548 -11036839.36048  21283709.3424   21283712.8574   21283709.524
        53.0004         48.0004
                                                                  22914091.301

  -4955738.63548  -3819597.20447  22513949.5794   22513957.6134   22513949.405
        49.0004         45.0004
 -13400259.71548 -10187746.84947  22009067.3164   22009075.1714   22009068.010
        52.0004         47.0004
 -13318383.51348 -10358839.33348  21810801.6234   21810809.3514   21810801.619
        53.0004         48.0004
 -10990706.52847  -8551294.02947  23310176.6134   23310181.1374   23310176.291
        46.0004         42.0004
    257495.77947    200175.90246  23889205.7414   23889208.0164   23889205.322
        46.0004         41.0004
 15  1 11  1 27 30.0000000  0  8G27G16G14G03G19G32G08G31
 -16630373.88549 -12942062.21348  20535445.3584   20535452.6084   20535445.138
        56.0004         52.0004
 -14121848.46248 -10989584.83648  21295248.9644   21295252.9754   21295249.542
        53.0004         48.0004
   -627222.89848   -495265.04246  22927806.7064   22927818.8064   22927807.115
        48.0004         39.0004
  -4963882.71548  -3825943.31147  22512400.8974   22512407.6174   22512399.814
        49.0004         44.0004
 -13491036.88448 -10258482.20347  21991792.7834   21991799.8314   21991793.438
        52.0004         47.0004
 -13278306.71248 -10327610.75148  21818428.2254   21818436.1884   21818428.696
        53.0004         48.0004
 -11006710.93447  -8563764.98647  23307131.2914   23307135.9614   23307131.727
        46.0004         42.0004
    259253.31847    201545.38747  23889540.1104   23889542.9574   23889539.355
        46.0004         42.0004
 15  1 11  1 28  0.0000000  0  9G27G16G14G03G19G32G08G31G04
 -16666244.16149 -12970012.99648  20528619.4524   20528626.5684   20528619.439
        57.0004         52.0004
 -14060956.43448 -10942136.49248  21306836.7084   21306840.2294   21306836.726
        53.0004         48.0004
   -554747.00647   -438790.72346  22941598.0944   22941609.8604   22941598.486
        46.0004         41.0004
  -4971621.32148  -3831973.45547  22510927.5294   22510934.9904   22510927.596
        49.0004         44.0004
 -13581601.60648 -10329051.95048  21974558.9554   21974566.2754   21974559.961
        52.0004         48.0004
 -13237972.94548 -10296181.93548  21826103.4634   21826110.9594   21826104.119
        53.0004         48.0004
 -11022902.92647  -8576382.11647  23304049.4744   23304054.8154   23304050.536
        46.0004         42.0004
    260952.34147    202869.25346  23889863.6694   23889866.3674   23889863.752
        46.0004         41.0004
   -789510.62548   -589542.03646  24578016.7614   24578027.9644   24578014.759
        53.0004         36.0004
 15  1 11  1 28 30.0000000  0  9G27G16G14G03G19G32G08G31G04
 -16701626.02249 -12997583.18848  20521886.4664   20521893.7124   20521886.615
        57.0004         52.0004
 -13999830.18948 -10894505.64048  21318468.7494   21318472.0484   21318469.236
        53.0004         48.0004
   -481885.45447   -382016.03346  22955463.8194   22955477.3094   22955464.561
        44.0004         38.0004
  -4978967.63648  -3837697.91547  22509529.4974   22509537.8054   22509528.696
        49.0004         44.0004
 -13671963.04648 -10399463.28847  21957363.5744   21957370.8274   21957364.110
        52.0004         47.0004
 -13197396.47648 -10264563.98748  21833824.6564   21833832.6534   21833825.028
        53.0004         48.0004
 -11039294.06247  -8589154.44447  23300931.5004   23300936.0664   23300932.006
        47.0004         42.0004
    262582.50447    204139.48947  23890172.9314   23890178.3804   23890173.634
        46.0004         42.0004
   -816302.53148   -610418.73546  24572916.9454   24572932.8164   24572916.959
        48.0004         36.0004
 15  1 11  1 29  0.0000000  0  9G27G16G14G03G19G32G08G31G04
 -16736509.30549 -13024764.88048  20515248.2614   20515255.3314   20515248.276
        57.0004         52.0004
 -13938464.66048 -10846688.33348  21330145.8814   21330149.3834   21330146.632
        53.0004         48.0004
                   -324934.86245                  22969409.2624   22969404.432
                        35.0004
  -4985914.79148  -3843111.33647  22508208.3154   22508215.2344   22508206.715
        49.0004         44.0004
 -13762109.52348 -10469707.01147  21940209.1464   21940216.3294   21940210.049
        52.0004         47.0004
 -13156571.46248 -10232752.39448  21841593.8394   21841601.1564   21841594.333
        53.0004         48.0004
 -11055875.29947  -8602074.87347  23297775.3614   23297780.1254   23297776.065
        47.0004         42.0004
    264153.67347    205363.72146  23890472.7344   23890475.8954   23890471.666
        46.0004         41.0004
   -843364.38447   -631505.89846  24567768.6124   24567781.7454   24567767.560
        43.0004         36.0004
 15  1 11  1 29 30.0000000  0  8G27G16G03G19G32G08G31G04
 -16770882.68549 -13051549.25248  20508707.3804   20508714.2874   20508707.355
        57.0004         52.0004
 -13876853.72448 -10798679.79848  21341870.1214   21341874.0814   21341870.869
        53.0004         48.0004
  -4992454.77048  -3848207.48647  22506963.9544   22506970.1184   22506962.540
        49.0004         44.0004
 -13852028.61948 -10539773.54448  21923097.4114   21923105.3304   21923097.966
        52.0004         48.0004
 -13115491.01748 -10200741.75848  21849411.5704   21849419.0554   21849411.683
        53.0004         48.0004
 -11072636.91447  -8615135.86647  23294586.0494   23294591.4134   23294586.575
        47.0004         42.0004
    265676.70347    206550.50246  23890761.5834   23890766.6434   23890761.154
        46.0004         41.0004
   -870686.42646   -652795.79145  24562569.2564   24562583.0524   24562569.993
        41.0004         35.0004
 15  1 11  1 30  0.0000000  0  9G27G16G14G03G19G32G08G31G04
 -16804765.73449 -13077951.54748  20502259.3744   20502266.5764   20502258.822
        57.0004         52.0004
 -13815021.73248 -10750499.01548  21353636.2704   21353640.7034   21353636.610
        53.0004         48.0004
   -546102.91849   -433296.46447  22997509.3574   22997523.5954   22997510.277
        54.0004         42.0004
  -4998610.43648  -3853004.15747  22505791.8154   22505800.1784   22505791.457
        49.0004         45.0004
 -13941738.61348 -10609677.14648  21906026.5224   21906033.5024   21906027.273
        52.0004         48.0004
 -13074179.07748 -10168550.74448  21857272.6514   21857279.6654   21857273.109
        53.0004         48.0004
 -11089599.66447  -8628353.59747  23291358.8394   23291362.3084   23291359.584
        47.0004         42.0004
    267131.55547    207684.10647  23891037.5674   23891042.7084   23891038.392
        46.0004         42.0004
   -898290.47846   -674305.42745  24557315.0494   24557326.0614   24557314.881
        40.0004         35.0004
 15  1 11  1 30 30.0000000  0  9G27G16G14G03G19G32G08G31G04
 -16838147.33049 -13103963.09148  20495906.9284   20495914.1524   20495907.009
        57.0004         52.0004
 -13752962.74348 -10702141.35248  21365445.7354   21365449.4624   21365445.760
        53.0004         48.0004
   -471687.18648   -375310.50747  23011670.0384   23011683.0564   23011670.931
        50.0004         44.0004
  -5004374.00648  -3857495.31447  22504694.8294   22504702.8684   22504695.292
        49.0004         45.0004
 -14031227.06948 -10679408.11848  21888996.7864   21889004.3554   21888998.272
        52.0004         48.0004
 -13032628.80148 -10136174.01448  21865179.8814   21865186.7804   21865180.039
        53.0004         48.0004
 -11106753.55647  -8641720.27547  23288093.8464   23288098.0984   23288094.752
        47.0004         42.0004
    268529.47147    208773.35446  23891304.4454   23891308.2764   23891304.495
        46.0004         41.0004
                   -696027.45745                  24552021.0664   24552012.127
                        33.0004
 15  1 11  1 31  0.0000000  0  8G27G16G14G03G19G32G08G31
 -16870995.36649 -13129558.88848  20489656.1154   20489663.2414   20489655.688
        57.0004         52.0004
 -13690649.38048 -10653585.47648  21377303.6414   21377307.2674   21377303.826
        53.0004         48.0004
                                                                  23025912.986

  -5009716.50248  -3861658.34947  22503678.7734   22503686.7284   22503678.285
        49.0004         44.0004
 -14120460.65848 -10748940.49748  21872015.9884   21872022.8404   21872016.815
        52.0004         48.0004
 -12990812.39948 -10103589.90248  21873137.2044   21873144.2454   21873137.768
        53.0004         48.0004
 -11124068.02347  -8655212.05447  23284799.5514   23284804.5204   23284799.304
        47.0004         42.0004
    269902.11747    209842.91846  23891566.7234   23891570.3774   23891565.148
        46.0004         41.0004
 15  1 11  1 31 30.0000000  0  7G27G16G03G19G32G08G31
 -16903359.78949 -13154777.82948  20483497.5224   20483504.4404   20483497.013
        57.0004         52.0004
 -13628136.29248 -10604873.96948  21389199.6954   21389203.1444   21389199.552
        53.0004         48.0004
  -5014691.23948  -3865534.82547  22502732.1114   22502740.3934   22502731.699
        49.0004         45.0004
 -14209487.88448 -10818312.06448  21855074.3834   21855081.8014   21855074.686
        52.0004         48.0004
 -12948784.06748 -10070840.66248  21881135.2604   21881142.4224   21881135.255
        53.0004         48.0004
 -11141593.94047  -8668868.61747  23281464.5104   23281468.3744   23281464.273
        47.0004         42.0004
    271199.28147    210853.65446  23891813.5714   23891815.9394   23891813.097
        46.0004         41.0004
 15  1 11  1 32  0.0000000  0  8G27G16G14G03G19G32G08G31
 -16935226.61749 -13179609.04148  20477433.3054   20477440.4844   20477433.504
        57.0004         52.0004
 -13565414.56248 -10555999.89548  21401135.1124   21401138.7704   21401135.739
        52.0004         48.0004
                                                                  23054596.545

  -5019287.48948  -3869116.39147  22501857.1224   22501865.4524   22501857.103
        49.0004         44.0004
 -14298293.29948 -10887510.79247  21838174.8044   21838182.2214   21838175.813
        52.0004         47.0004
 -12906534.21348 -10037918.80548  21889174.7844   21889182.2964   21889175.552
        53.0004         48.0004
 -11159318.64847  -8682680.07047  23278091.3224   23278094.7704   23278091.462
        47.0004         42.0004
    272434.88447    211816.44147  23892047.2584   23892052.7974   23892047.625
        46.0004         42.0004
 15  1 11  1 32 30.0000000  0  7G27G16G03G19G32G08G31
 -16966566.02549 -13204029.28148  20471469.6314   20471476.6144   20471469.459
        57.0004         52.0004
 -13502459.16848 -10506943.73048  21413114.9904   21413118.3404   21413114.817
        52.0004         48.0004
  -5023478.74448  -3872382.34547  22501060.8304   22501067.8024   22501059.561
        49.0004         44.0004
 -14386845.71248 -10956512.39248  21821323.9514   21821330.9644   21821325.361
        52.0004         48.0004
 -12864037.18248 -10004804.34848  21897261.7124   21897269.4344   21897262.062
        53.0004         48.0004
 -11177213.54847  -8696624.14547  23274685.5604   23274689.9184   23274686.909
        47.0004         42.0004
    273638.37947    212754.15047  23892277.0024   23892280.9874   23892276.988
        46.0004         42.0004
 15  1 11  1 33  0.0000000  0  7G27G16G03G19G32G08G31
 -16997401.06049 -13228056.49948  20465601.8614   20465608.5934   20465601.768
        57.0004         52.0004
 -13439297.98448 -10457727.21048  21425133.8574   21425136.9094   21425134.136
        52.0004         48.0004
  -5027291.18748  -3875353.15947  22500335.0484   22500342.1414   22500333.657
        49.0004         44.0004
 -14475166.91248 -11025333.82848  21804517.0224   21804523.7364   21804517.876
        52.0004         48.0004
 -12821320.16648  -9971518.47348  21905390.8094   21905397.7994   21905391.706
        53.0004         48.0004
 -11195302.83747  -8710719.69847  23271242.4524   23271247.4704   23271243.398
        47.0004         42.0004
    274786.57247    213648.78746  23892495.1124   23892499.9714   23892492.717
        46.0004         41.0004
 15  1 11  1 33 30.0000000  0  8G27G16G14G03G19G32G08G31
 -17027729.30449 -13251688.82548  20459830.2694   20459837.5654   20459830.141
        57.0004         52.0004
 -13375933.57948 -10408352.34248  21437192.0974   21437195.7424   21437192.469
        52.0004         48.0004
   -367314.80749   -295279.79947  23098169.1284   23098183.2014   23098169.660
        55.0004         42.0004
  -5030725.76248  -3878029.49747  22499680.8044   22499688.6604   22499680.269
        49.0004         44.0004
 -14563252.94648 -11093972.04148  21787754.4474   21787761.5294   21787754.803
        53.0004         48.0004
 -12778385.13348  -9938062.70848  21913561.0284   21913568.9094   21913561.688
        53.0004         48.0004
 -11213585.14147  -8724965.63447  23267763.2494   23267768.0354   23267765.148
        47.0004         42.0004
    275881.75347    214502.13046  23892703.8484   23892707.5754   23892702.440
        46.0004         41.0004
 15  1 11  1 34  0.0000000  0  7G27G16G03G19G32G08G31
 -17057533.29449 -13274912.63748  20454158.8874   20454165.6404   20454158.846
        57.0004         52.0004
 -13312353.18948 -10358809.16048  21449290.8734   21449294.3134   21449290.240
        52.0004         48.0004
  -5033768.26748  -3880400.33147  22499100.9784   22499109.3624   22499101.790
        49.0004         44.0004
 -14651084.92648 -11162412.29048  21771040.2674   21771047.4484   21771041.388
        53.0004         48.0004
 -12735218.81848  -9904426.73048  21921775.3864   21921783.0764   21921775.909
        53.0004         48.0004
 -11232043.94647  -8739349.10847  23264251.7644   23264256.0094   23264252.445
        47.0004         42.0004
    276941.56347    215327.91646  23892905.4224   23892909.3744   23892905.193
        46.0004         41.0004
 15  1 11  1 34 30.0000000  0  7G27G16G03G19G32G08G31
 -17086818.10949 -13297731.90048  20448586.1254   20448592.8824   20448585.983
        57.0004         52.0004
 -13248566.52548 -10309105.25848  21461429.2584   21461433.0294   21461429.563
        52.0004         48.0004
  -5036426.98148  -3882472.14247  22498596.3154   22498604.7464   22498595.347
        49.0004         44.0004
 -14738666.20248 -11230657.17748  21754374.4484   21754380.8724   21754375.432
        53.0004         48.0004
 -12691830.36048  -9870617.64448  21930032.1274   21930039.4304   21930033.059
        53.0004         48.0004
 -11250685.29347  -8753874.83947  23260703.5594   23260707.9244   23260705.498
        47.0004         42.0004
    277960.46047    216121.82446  23893098.9884   23893103.5494   23893098.490
        46.0004         41.0004
 15  1 11  1 35  0.0000000  0  8G27G16G14G03G19G32G08G31
 -17115602.81849 -13320161.47248  20443108.6984   20443115.2924   20443108.593
        57.0004         52.0004
 -13184597.40448 -10259259.17748  21473602.3214   21473605.2864   21473602.107
        52.0004         48.0004
   -193349.40147   -153548.81346  23142380.7044   23142393.2164   23142382.095
        44.0004         37.0004
  -5038724.27048  -3884262.29647  22498159.9774   22498166.7344   22498158.260
        49.0004         45.0004
 -14826014.48848 -11298720.52348  21737751.8014   21737759.0874   21737752.513
        53.0004         48.0004
 -12648243.09148  -9836653.65748  21938326.8714   21938334.5974   21938327.256
        53.0004         48.0004
 -11269529.27147  -8768558.45047  23257118.1154   23257122.3224   23257118.778
        47.0004         42.0004
    278919.50247    216869.09646  23893281.9504   23893285.7834   23893281.018
        46.0004         41.0004
 15  1 11  1 35 30.0000000  0  8G27G16G14G03G19G32G08G31
 -17143853.23449 -13342174.71248  20437732.5214   20437739.3854   20437732.382
        57.0004         52.0004
 -13120416.41248 -10209247.99448  21485815.6464   21485818.5104   21485816.042
        52.0004         48.0004
   -115165.21247    -92626.32946  23157258.9514   23157271.9224   23157259.211
        43.0004         39.0004
  -5040629.18348  -3885746.70647  22497796.2344   22497804.5244   22497796.525
        49.0004         45.0004
 -14913094.05348 -11366574.48848  21721180.8974   21721187.6074   21721182.016
        53.0004         48.0004
 -12604427.03948  -9802511.39748  21946664.8304   21946672.5184   21946664.730
        53.0004         48.0004
 -11288542.82847  -8783374.19447  23253500.3654   23253505.7144   23253501.855
        47.0004         42.0004
    279852.88547    217596.39946  23893458.4524   23893465.2324   23893457.565
        46.0004         41.0004
 15  1 11  1 36  0.0000000  0  8G27G16G14G03G19G32G08G31
 -17171585.60649 -13363784.28748  20432455.1484   20432461.9744   20432454.985
        57.0004         52.0004
 -13056044.37548 -10159087.95648  21498065.0474   21498067.7844   21498064.911
        52.0004         48.0004
    -36618.94547    -31421.81046  23172206.9504   23172219.8704   23172206.611
        44.0004         40.0004
  -5042161.10848  -3886940.48947  22497505.0074   22497513.2824   22497505.152
        49.0004         45.0004
 -14999919.75948 -11434230.64748  21704658.6544   21704665.2804   21704659.036
        53.0004         48.0004
 -12560402.47648  -9768206.65548  21955041.9604   21955050.0104   21955042.375
        52.0004         48.0004
 -11307742.87947  -8798335.28347  23249847.4684   23249850.4904   23249847.987
        47.0004         42.0004
    280744.57847    218291.19747  23893629.0564   23893632.7874   23893630.526
        46.0004         42.0004
 15  1 11  1 36 30.0000000  0  8G27G16G14G03G19G32G08G31
 -17198789.06949 -13384981.72448  20427278.7124   20427285.4724   20427278.342
        57.0004         52.0004
 -12991475.33748 -10108774.40647  21510351.8324   21510355.6814   21510351.903
        52.0004         47.0004
     42297.09847     30070.78147  23187223.4024   23187237.4604   23187223.615
        45.0004         42.0004
  -5043312.53748  -3887837.78647  22497286.0614   22497294.0364   22497286.142
        49.0004         45.0004
 -15086479.03348 -11501679.18748  21688186.7714   21688193.0454   21688187.551
        53.0004         48.0004
 -12516162.72748  -9733734.23848  21963460.7494   21963469.2374   21963461.185
        52.0004         48.0004
 -11327119.44047  -8813433.90047  23246159.8594   23246162.8044   23246159.864
        47.0004         42.0004
    281605.15747    218961.73247  23893792.9434   23893798.0634   23893793.159
        46.0004         42.0004
 15  1 11  1 37  0.0000000  0  8G27G16G14G03G19G32G08G31
 -17225465.91849 -13405768.81148  20422202.1124   20422208.8684   20422201.922
        57.0004         52.0004
 -12926715.97948 -10058312.54948  21522674.7854   21522678.9514   21522675.429
        52.0004         48.0004
    121577.15447     91846.94646  23202309.9704   23202324.8294   23202310.364
        45.0004         40.0004
  -5044088.84648  -3888442.77947  22497138.6464   22497146.8634   22497138.382
        49.0004         45.0004
 -15172772.59448 -11568920.67948  21671765.5854   21671772.3324   21671766.475
        53.0004         48.0004
 -12471714.11148  -9699099.07247  21971918.3044   21971926.6554   21971919.138
        52.0004         47.0004
 -11346675.68847  -8828672.53247  23242437.8664   23242442.0074   23242436.940
        46.0004         42.0004
    282432.48547    219606.36647  23893950.8374   23893955.9994   23893949.999
        47.0004         42.0004
 15  1 11  1 37 30.0000000  0  8G27G16G14G03G19G32G08G31
 -17251616.35149 -13426145.70248  20417225.6674   20417232.7504   20417225.302
        57.0004         52.0004
 -12861770.95448 -10007706.02247  21535034.0084   21535037.1044   21535034.500
        52.0004         47.0004
    201217.73747    153904.26346  23217464.3574   23217479.8264   23217464.474
        43.0004         37.0004
  -5044493.49948  -3888758.16447  22497061.5494   22497069.1504   22497060.626
        49.0004         45.0004
 -15258798.87148 -11635953.90148  21655394.3334   21655401.1524   21655395.355
        53.0004         48.0004
 -12427060.95048  -9664304.51947  21980416.1374   21980424.0164   21980417.082
        52.0004         47.0004
 -11366412.66947  -8844052.00646  23238683.0674   23238686.0784   23238683.630
        46.0004         41.0004
    283226.93147    220225.34547  23894102.5544   23894106.1954   23894102.338
        47.0004         42.0004
 15  1 11  1 38  0.0000000  0  8G27G16G14G03G19G32G08G31
 -17277231.87749 -13446105.77948  20412351.1174   20412358.1004   20412350.799
        57.0004         52.0004
 -12796636.67048  -9956952.02247  21547428.3304   21547431.7914   21547428.722
        52.0004         47.0004
    281223.53347    216245.98646  23232689.0074   23232704.7234   23232689.360
        44.0004         40.0004
  -5044521.23648  -3888779.84647  22497057.2434   22497063.5224   22497055.483
        49.0004         45.0004
 -15344547.85348 -11702771.06048  21639077.0524   21639084.4124   21639077.858
        53.0004         48.0004
 -12382198.83048  -9629347.15747  21988953.3244   21988962.2614   21988954.213
        52.0004         47.0004
 -11386322.58247  -8859566.20747  23234892.5254   23234899.2704   23234893.286
        46.0004         42.0004
    283996.28447    220824.81147  23894248.6074   23894252.7584   23894248.164
        47.0004         42.0004
 15  1 11  1 38 30.0000000  0  9G27G16G14G03G19G32G08G23G31
 -17302323.53449 -13465657.65248  20407576.2084   20407583.2854   20407576.010
        57.0004         52.0004
 -12731328.62448  -9906062.62347  21559856.0554   21559859.7194   21559855.887
        52.0004         47.0004
    361580.65547    278861.41147  23247982.1874   23247996.9044   23247982.915
        46.0004         42.0004
  -5044186.25548  -3888518.88247  22497119.2754   22497126.5814   22497119.486
        49.0004         44.0004
 -15430028.87748 -11769379.41648  21622810.8134   21622817.3094   21622811.715
        53.0004         49.0004
 -12337142.65948  -9594238.57647  21997527.7714   21997534.9274   21997528.029
        52.0004         47.0004
 -11406417.30747  -8875224.42647  23231069.9824   23231073.4804   23231071.385
        46.0004         42.0004
   -447669.55349   -186856.97547  23558561.4554   23558563.1904   23558562.416
        54.0004         43.0004
    284730.11347    221396.60147  23894388.1634   23894392.3484   23894387.442
        47.0004         43.0004
 15  1 11  1 39  0.0000000  0  8G27G16G03G19G32G08G23G31
 -17326850.70149 -13484769.66548  20402908.8204   20402915.7554   20402908.725
        57.0004         52.0004
 -12665810.82448  -9855009.77948  21572323.9024   21572327.2724   21572323.907
        52.0004         48.0004
  -5043451.16848  -3887946.16847  22497259.8454   22497268.0664   22497259.863
        49.0004         45.0004
 -15515199.62448 -11835746.00448  21606603.2334   21606609.7604   21606603.692
        53.0004         49.0004
 -12291855.95348  -9558950.36147  22006145.8554   22006153.7374   22006146.117
        52.0004         47.0004
 -11426656.80547  -8890995.48647  23227217.3664   23227221.8884   23227217.574
        46.0004         42.0004
   -552169.44648   -268285.46147  23538676.3054   23538677.5164   23538676.683
        50.0004         43.0004
    285469.14247    221972.39747  23894528.1114   23894533.6484   23894528.609
        47.0004         42.0004
 15  1 11  1 39 30.0000000  0  9G27G16G14G03G19G32G08G23G31
 -17350887.83549 -13503499.83348  20398334.8564   20398341.5444   20398334.721
        57.0004         52.0004
 -12600161.90248  -9803854.75947  21584816.7724   21584820.2244   21584816.125
        52.0004         47.0004
    -27017.81248    -29490.03346  23278774.1104   23278786.4964   23278773.779
        52.0004         39.0004
  -5042393.53148  -3887122.13447  22497461.6974   22497469.0044   22497460.495
        49.0004         45.0004
 -15600132.85948 -11901927.53048  21590440.3924   21590447.5014   21590441.483
        53.0004         49.0004
 -12246417.20248  -9523543.66047  22014792.4634   22014799.9574   22014792.591
        52.0004         47.0004
 -11447116.06347  -8906937.76147  23223325.6394   23223328.7254   23223326.418
        46.0004         42.0004
   -656630.74348   -349683.87747  23518797.1304   23518798.5994   23518797.974
        48.0004         43.0004
    286139.50047    222494.70547  23894657.0074   23894661.0974   23894656.246
        47.0004         43.0004
 15  1 11  1 40  0.0000000  0  9G27G16G14G03G19G32G08G23G31
 -17374385.54349 -13521809.67148  20393863.1494   20393869.8864   20393862.976
        57.0004         52.0004
 -12534337.10248  -9752562.69847  21597342.4624   21597345.5864   21597342.600
        52.0004         47.0004
                     33947.20345                  23294284.0344   23294266.156
                        35.0004
  -5040967.24248  -3886010.80047  22497733.0004   22497740.3874   22497732.051
        50.0004         45.0004
 -15684777.62448 -11967884.26748  21574333.3134   21574339.1484   21574334.007
        53.0004         49.0004
 -12200780.89848  -9487983.03347  22023476.7204   22023484.2624   22023476.846
        51.0004         47.0004
 -11467746.71247  -8923013.58546  23219396.5444   23219402.3744   23219398.598
        46.0004         41.0004
   -761003.15348   -431013.02047  23498936.9314   23498937.8084   23498937.501
        48.0004         43.0004
    286790.13247    223001.63947  23894781.1414   23894784.7434   23894779.320
        47.0004         42.0004
 15  1 11  1 40 30.0000000  0  9G27G16G14G03G19G32G08G23G31
 -17397336.83449 -13539693.72748  20389495.7424   20389502.5474   20389495.685
        57.0004         52.0004
 -12468334.05248  -9701131.74947  21609902.0954   21609905.6094   21609902.556
        52.0004         47.0004
    136165.47147     97664.98646  23309826.3844   23309841.1824   23309826.878
        45.0004         40.0004
  -5039168.32848  -3884609.13147  22498074.8994   22498082.8944   22498074.870
        49.0004         45.0004
 -15769124.72448 -12033609.06248  21558282.1154   21558288.8914   21558282.621
        53.0004         49.0004
 -12154943.97848  -9452266.09047  22032199.1604   22032206.6744   22032199.767
        51.0004         47.0004
 -11488542.10547  -8939217.78446  23215441.8814   23215446.6534   23215442.857
        46.0004         41.0004
   -865278.64048   -512266.66547  23479093.6124   23479094.2304   23479092.477
        48.0004         43.0004
    287428.58947    223499.04847  23894902.1644   23894905.2574   23894902.097
        47.0004         43.0004
 15  1 11  1 41  0.0000000  0  9G27G16G14G03G19G32G08G23G31
 -17419755.09349 -13557162.43448  20385229.6604   20385236.3824   20385229.602
        57.0004         52.0004
 -12402170.30148  -9649575.58247  21622493.1424   21622496.4214   21622493.215
        52.0004         47.0004
    218280.20147    161650.23846  23325452.4554   23325467.9984   23325452.553
        43.0004         39.0004
  -5037013.38848  -3882930.05247  22498485.2554   22498492.3984   22498484.891
        49.0004         45.0004
 -15853186.35848 -12099111.41648  21542285.2734   21542292.3754   21542286.337
        53.0004         49.0004
 -12108923.77048  -9416406.31547  22040956.8124   22040964.5904   22040956.750
        51.0004         47.0004
 -11509516.06047  -8955561.13346  23211448.9504   23211455.1574   23211449.698
        46.0004         41.0004
   -969469.00347   -593453.96847  23459266.4584   23459267.5744   23459266.526
        47.0004         43.0004
    288042.17047    223977.11146  23895019.1674   23895023.1604   23895018.619
        47.0004         41.0004
 15  1 11  1 41 30.0000000  0  9G27G16G14G03G19G32G08G23G31
 -17441629.33649 -13574207.22848  20381067.1394   20381074.1214   20381066.725
        57.0004         52.0004
 -12335839.14448  -9597888.95647  21635115.4974   21635118.8334   21635115.952
        52.0004         47.0004
    300745.60147    225908.61346  23341146.0624   23341159.3404   23341146.343
        44.0004         40.0004
  -5034494.60548  -3880967.45747  22498964.7324   22498972.6114   22498964.855
        49.0004         45.0004
 -15936949.42448 -12164381.12348  21526345.7144   21526352.2224   21526346.543
        53.0004         49.0004
 -12062713.24948  -9380398.25547  22049749.7384   22049758.0054   22049750.671
        51.0004         47.0004
 -11530658.17547  -8972035.52947  23207427.5254   23207431.0134   23207428.485
        46.0004         42.0004
  -1073562.27347   -674565.60747  23439458.7764   23439460.1554   23439457.075
        47.0004         42.0004
    288641.83847    224444.35847  23895133.0614   23895136.4664   23895133.066
        47.0004         43.0004
 15  1 11  1 42  0.0000000  0  9G27G16G14G03G19G32G08G23G31
 -17462960.87049 -13590829.13948  20377007.5934   20377014.4484   20377007.195
        57.0004         52.0004
 -12269346.50948  -9546076.49947  21647768.6414   21647772.3404   21647768.830
        52.0004         47.0004
    383557.00747    290436.59046  23356903.6494   23356920.7714   23356903.182
        42.0004         36.0004
  -5031616.34948  -3878724.74247  22499512.9194   22499520.2784   22499512.280
        49.0004         44.0004
 -16020413.24548 -12229417.66948  21510462.8944   21510468.9274   21510463.767
        53.0004         49.0004
 -12016317.48548  -9344245.84147  22058578.6094   22058587.3254   22058580.110
        52.0004         47.0004
 -11551970.21147  -8988642.31647  23203372.6104   23203377.1764   23203373.383
        46.0004         42.0004
  -1177558.33547   -755601.48347  23419669.4564   23419670.4804   23419669.489
        47.0004         42.0004
    289226.68048    224900.04547  23895243.4214   23895248.3864   23895242.910
        48.0004         43.0004
 15  1 11  1 42 30.0000000  0  9G27G16G14G03G19G32G08G23G31
 -17483750.85949 -13607029.07148  20373051.4844   20373057.9854   20373051.243
        57.0004         52.0004
 -12202697.75848  -9494142.40547  21660451.0544   21660454.5094   21660451.077
        52.0004         47.0004
    466709.86746    355230.69946  23372728.7654   23372743.2574   23372728.579
        41.0004         38.0004
  -5028382.95048  -3876205.30847  22500128.7624   22500135.2754   22500127.550
        49.0004         45.0004
 -16103577.48048 -12294220.76748  21494637.5454   21494642.9424   21494637.911
        53.0004         49.0004
 -11969741.68148  -9307953.15247  22067442.8594   22067450.6214   22067442.855
        52.0004         47.0004
 -11573453.88047  -9005382.85646  23199284.2024   23199287.2814   23199284.738
        46.0004         41.0004
  -1281456.66747   -836561.21847  23399897.8444   23399898.8414   23399897.851
        47.0004         42.0004
    289795.74447    225343.38047  23895353.2074   23895357.1904   23895352.380
        47.0004         43.0004
 15  1 11  1 43  0.0000000  0  9G27G16G14G03G19G32G08G23G31
 -17503994.69349 -13622803.42948  20369199.1994   20369205.8874   20369199.106
        57.0004         52.0004
 -12135892.48248  -9442086.33947  21673163.9904   21673167.5734   21673163.641
        52.0004         47.0004
    550205.53347    420291.84646  23388616.4414   23388632.5724   23388616.052
        44.0004         40.0004
  -5024792.90848  -3873407.95947  22500811.4124   22500819.2504   22500810.171
        49.0004         45.0004
 -16186435.42449 -12358785.19948  21478869.8444   21478875.8924   21478870.844
        54.0004         49.0004
 -11922984.88848  -9271519.41547  22076339.5754   22076348.3254   22076340.893
        51.0004         47.0004
 -11595104.74547  -9022253.66646  23195162.2684   23195166.5284   23195163.708
        46.0004         41.0004
  -1385251.59747   -917440.37047  23380146.3654   23380147.0004   23380145.519
        47.0004         42.0004
    290354.47647    225778.68747  23895458.3364   23895463.6694   23895458.397
        47.0004         43.0004
 15  1 11  1 43 30.0000000  0  9G27G16G14G03G19G32G08G23G31
 -17523695.17949 -13638154.40348  20365450.3674   20365456.6904   20365450.178
        57.0004         52.0004
 -12068937.91948  -9389913.96247  21685905.1014   21685908.4054   21685905.485
        52.0004         47.0004
    634038.17647    485615.70746  23404570.9754   23404586.6414   23404570.798
        43.0004         38.0004
  -5020852.13448  -3870337.30047  22501561.4514   22501568.5884   22501561.215
        49.0004         44.0004
 -16268987.99349 -12423111.66548  21463160.2474   21463166.3114   21463160.776
        54.0004         49.0004
 -11876053.71448  -9234949.81347  22085270.1974   22085279.1274   22085270.259
        51.0004         47.0004
 -11616925.91547  -9039257.18846  23191011.0294   23191014.8194   23191011.840
        46.0004         41.0004
  -1488944.31447   -998239.87647  23360414.4144   23360415.5504   23360414.759
        47.0004         42.0004
    290900.24648    226203.88247  23895563.1574   23895567.4524   23895562.682
        48.0004         44.0004
 15  1 11  1 44  0.0000000  0  9G27G16G14G03G19G32G08G23G31
 -17542847.40249 -13653078.16148  20361805.7174   20361812.0734   20361805.545
        57.0004         52.0004
 -12001833.25448  -9337624.60247  21698674.2414   21698678.1394   21698674.492
        52.0004         47.0004
    718208.97047    551203.05446  23420585.8074   23420602.6804   23420586.700
        42.0004         37.0004
  -5016558.79248  -3866991.95147  22502379.5474   22502386.0154   22502377.161
        49.0004         44.0004
 -16351228.38049 -12487194.89048  21447510.3624   21447516.2634   21447510.955
        54.0004         49.0004
 -11828947.11048  -9198243.51147  22094235.0654   22094242.7254   22094235.948
        51.0004         47.0004
 -11638912.82847  -9056389.86546  23186827.2714   23186831.1534   23186828.070
        46.0004         41.0004
  -1592528.36847  -1078954.70147  23340701.1574   23340705.3724   23340701.818
        47.0004         42.0004
    291438.52647    226623.29347  23895664.5234   23895670.5724   23895664.252
        47.0004         42.0004
 15  1 11  1 44 30.0000000  0 10G27G16G14G03G19G32G08G23G31G04
 -17561454.44349 -13667577.10148  20358264.8124   20358271.4274   20358264.590
        57.0004         52.0004
 -11934585.74648  -9285223.93147  21711470.8334   21711474.4854   21711471.523
        52.0004         47.0004
    802711.25247    617048.49446  23436667.9384   23436684.8524   23436668.478
        44.0004         39.0004
  -5011919.03848  -3863376.63547  22503261.2354   22503269.1704   22503260.297
        49.0004         45.0004
 -16433157.86349 -12551035.84048  21431919.5314   21431925.4584   21431920.415
        54.0004         49.0004
 -11781671.85248  -9161405.79047  22103231.5124   22103240.0304   22103231.378
        51.0004         47.0004
 -11661068.63347  -9073654.13246  23182611.6674   23182616.0784   23182611.723
        46.0004         41.0004
  -1696005.92547  -1159586.54847  23321011.3374   23321013.6014   23321011.360
        47.0004         42.0004
    291966.69247    227034.75547  23895765.3634   23895770.2634   23895766.019
        47.0004         42.0004
                                                                  24382665.473

 15  1 11  1 45  0.0000000  0 10G27G16G14G03G19G32G08G23G31G04
 -17579511.43149 -13681647.43748  20354828.8174   20354835.1964   20354828.628
        57.0004         52.0004
 -11867194.80148  -9232711.49947  21724294.7024   21724298.9284   21724295.276
        51.0004         47.0004
    887547.01646    683153.79846  23452811.6164   23452826.0514   23452811.056
        41.0004         36.0004
  -5006931.03848  -3859489.97047  22504210.6334   22504218.8964   22504210.335
        49.0004         45.0004
 -16514769.17349 -12614628.87848  21416389.2894   21416394.9694   21416390.075
        54.0004         49.0004
 -11734226.73348  -9124435.71947  22112259.9474   22112267.7964   22112260.181
        51.0004         47.0004
 -11683389.09447  -9091046.71846  23178364.6124   23178367.7924   23178364.109
        46.0004         41.0004
  -1799369.91147  -1240129.89047  23301342.1674   23301343.8284   23301341.996
        47.0004         42.0004
    292490.20347    227442.63847  23895864.3124   23895870.8834   23895864.298
        47.0004         42.0004
  -1517179.55648  -1150958.32846  24375880.5314   24375893.7254   24375880.905
        50.0004         37.0004
 15  1 11  1 45 30.0000000  0 11G27G11G16G14G03G19G32G08G23G31G04
 -17597017.34949 -13695288.36548  20351497.3744   20351503.7874   20351497.111
        57.0004         52.0004
  -1569576.32548  -1169636.46545  25025307.8854   25025320.3714   25025308.806
        50.0004         35.0004
 -11799663.51348  -9180089.71547  21737146.0224   21737149.6724   21737146.698
        51.0004         47.0004
    972714.21546    749517.56545  23469019.2514   23469033.9734   23469019.645
        40.0004         35.0004
  -5001596.91648  -3855333.59047  22505224.5964   22505233.5014   22505224.851
        49.0004         45.0004
 -16596059.62849 -12677971.90448  21400920.3744   21400926.0094   21400921.422
        54.0004         49.0004
 -11686614.57548  -9087335.46047  22121319.9904   22121329.1614   22121320.733
        51.0004         47.0004
 -11705873.15347  -9108566.79546  23174085.5384   23174090.0224   23174086.204
        46.0004         41.0004
  -1902617.64747  -1320582.69647  23281694.3774   23281694.6934   23281695.050
        46.0004         42.0004
    293010.64847    227848.14747  23895964.5144   23895968.9204   23895964.157
        47.0004         43.0004
  -1553096.48847  -1178945.62046  24369045.1514   24369059.0774   24369046.044
        46.0004         38.0004
 15  1 11  1 46  0.0000000  0 11G27G11G16G14G03G19G32G08G23G31G04
 -17613972.63749 -13708500.23348  20348270.6304   20348277.5404   20348270.350
        57.0004         52.0004
  -1632305.66347  -1218516.82645  25013371.2574   25013383.8464   25013372.411
        44.0004         35.0004
 -11731996.48648  -9127362.15847  21750022.6764   21750026.1194   21750022.971
        51.0004         47.0004
   1058209.36346    816137.12245  23485289.2114   23485304.2314   23485288.395
        39.0004         35.0004
  -4995920.08348  -3850910.18147  22506305.7844   22506313.0994   22506305.878
        49.0004         45.0004
 -16677028.00949 -12741063.96648  21385512.1154   21385517.9034   21385513.175
        54.0004         49.0004
 -11638839.48048  -9050108.23747  22130411.8784   22130421.1024   22130412.008
        51.0004         47.0004
 -11728521.44347  -9126214.81947  23169776.2014   23169780.1894   23169775.214
        46.0004         42.0004
  -2005748.36347  -1400944.28647  23262069.2924   23262069.7954   23262069.353
        46.0004         42.0004
    293528.05447    228251.25947  23896062.2624   23896067.2404   23896062.473
        47.0004         42.0004
  -1589277.36347  -1207138.67646  24362163.3284   24362174.6414   24362163.791
        42.0004         37.0004
 15  1 11  1 46 30.0000000  0 11G27G11G16G14G03G19G32G08G23G31G04
 -17630375.17749 -13721281.39448  20345149.5644   20345156.1544   20345149.331
        57.0004         52.0004
  -1695273.47347  -1267582.99246  25001391.5634   25001402.0324   25001390.116
        42.0004         36.0004
 -11664195.53448  -9074530.23847  21762925.3574   21762927.9504   21762925.295
        51.0004         47.0004
   1144031.05046    883011.24546  23501619.4854   23501634.5844   23501620.986
        41.0004         37.0004
  -4989901.47348  -3846220.44047  22507451.5794   22507459.0064   22507450.981
        49.0004         45.0004
 -16757670.35849 -12803901.97548  21370166.2614   21370172.7834   21370166.861
        54.0004         49.0004
 -11590902.97248  -9012755.24747  22139534.2314   22139542.1264   22139534.744
        51.0004         47.0004
 -11751332.11847  -9143989.38246  23165436.0434   23165438.7274   23165434.666
        46.0004         41.0004
  -2108758.36347  -1481211.82047  23242466.8674   23242467.6124   23242466.540
        46.0004         42.0004
    294045.03147    228654.10447  23896161.3724   23896165.8294   23896159.981
        47.0004         43.0004
  -1625720.72947  -1235536.33646  24355229.5384   24355240.6284   24355227.379
        42.0004         36.0004
 15  1 11  1 47  0.0000000  0 11G27G11G16G14G03G19G32G08G23G31G04
 -17646222.98649 -13733630.29648  20342133.7254   20342140.2494   20342133.600
        57.0004         52.0004
  -1758478.03146  -1316833.60746  24989362.6894   24989376.3654   24989363.983
        41.0004         36.0004
 -11596262.67248  -9021595.52447  21775851.6784   21775855.8194   21775852.164
        51.0004         47.0004
   1230178.17547    950138.89647  23518011.8784   23518027.6164   23518012.230
        45.0004         42.0004
  -4983542.12448  -3841265.17747  22508662.2434   22508668.8394   22508661.798
        49.0004         45.0004
 -16837981.79349 -12866482.12648  21354883.3564   21354889.3104   21354884.058
        54.0004         49.0004
 -11542806.61348  -8975277.69247  22148685.9744   22148694.6964   22148686.555
        51.0004         47.0004
 -11774303.14347  -9161888.90146  23161063.8374   23161067.0654   23161063.526
        46.0004         41.0004
  -2211643.95447  -1561382.40047  23222889.2534   23222890.5484   23222888.828
        46.0004         42.0004
    294564.68447    229059.03047  23896259.6814   23896264.8784   23896259.393
        47.0004         42.0004
  -1662425.03946  -1264137.20446  24348242.0364   24348256.1354   24348242.328
        41.0004         37.0004
 15  1 11  1 47 30.0000000  0 11G27G11G16G14G03G19G32G08G23G31G04
 -17661515.50449 -13745546.50648  20339223.7074   20339230.3464   20339223.214
        57.0004         52.0004
  -1821919.21546  -1366268.62546  24977291.5874   24977302.6644   24977290.163
        41.0004         36.0004
 -11528201.69048  -8968560.97747  21788803.0744   21788807.2244   21788803.650
        51.0004         47.0004
   1316647.71947   1017517.96147  23534466.6394   23534483.4474   23534466.870
        47.0004         43.0004
  -4976844.49048  -3836046.33547  22509936.8184   22509943.8044   22509935.738
        49.0004         45.0004
 -16917960.05949 -12928802.68548  21339663.9144   21339669.6564   21339664.624
        54.0004         49.0004
 -11494553.67748  -8937678.14947  22157869.1834   22157877.3414   22157869.468
        51.0004         47.0004
 -11797433.82347  -9179912.81046  23156661.9124   23156666.3694   23156660.886
        46.0004         41.0004
  -2314402.82747  -1641454.23847  23203333.7414   23203336.1464   23203333.473
        46.0004         42.0004
    295087.95947    229466.75147  23896359.5314   23896364.7574   23896358.562
        47.0004         43.0004
  -1699390.30846  -1292941.41546  24341208.5574   24341220.3304   24341208.797
        41.0004         37.0004
 15  1 11  1 48  0.0000000  0 11G27G11G16G14G03G19G32G08G23G31G04
 -17676249.58249 -13757027.56648  20336419.6814   20336426.3634   20336419.395
        57.0004         52.0004
  -1885594.12546  -1415885.79246  24965174.2644   24965186.2574   24965173.558
        40.0004         36.0004
 -11460013.20148  -8915427.07447  21801779.8834   21801782.4504   21801779.693
        51.0004         46.0004
                                                                  23550982.649

  -4969808.42448  -3830563.76447  22511275.3594   22511282.7784   22511274.182
        49.0004         45.0004
 -16997599.93749 -12990859.54348  21324508.5714   21324514.5154   21324509.165
        54.0004         49.0004
 -11446144.42448  -8899956.79447  22167080.4714   22167090.0174   22167081.143
        51.0004         47.0004
 -11820721.16247  -9198058.82447  23152229.8704   23152235.2734   23152231.357
        46.0004         42.0004
  -2417030.10047  -1721423.55447  23183804.4054   23183805.8414   23183805.449
        47.0004         42.0004
    295618.58147    229880.16947  23896459.7214   23896465.8674   23896459.889
        47.0004         43.0004
  -1736614.42247  -1321947.38746  24334125.8864   24334139.2884   24334125.089
        43.0004         38.0004
 15  1 11  1 48 30.0000000  0 11G27G11G16G14G03G19G32G08G23G31G04
 -17690420.84749 -13768070.07848  20333723.1184   20333729.5454   20333722.969
        57.0004         52.0004
  -1949498.56146  -1465681.82045  24953013.1854   24953024.7764   24953014.173
        40.0004         35.0004
 -11391696.80148  -8862193.50447  21814780.1494   21814782.6174   21814780.723
        51.0004         46.0004
    -84865.39846    -74570.18446  23567561.6654   23567576.2294   23567560.273
        41.0004         37.0004
  -4962432.48048  -3824816.35847  22512679.0684   22512686.9844   22512678.093
        50.0004         45.0004
 -17076894.88149 -13052647.63548  21309418.9814   21309425.1044   21309419.643
        54.0004         49.0004
 -11397578.01448  -8862112.97747  22176322.3664   22176331.6314   22176323.635
        51.0004         47.0004
 -11844160.78447  -9216323.49747  23147770.2064   23147774.8624   23147770.549
        46.0004         42.0004
  -2519519.69047  -1801285.57947  23164301.0614   23164302.8894   23164301.865
        47.0004         42.0004
    296161.96047    230303.54847  23896563.9904   23896569.3934   23896562.973
        47.0004         42.0004
  -1774093.30047  -1351151.86446  24326993.0614   24327005.5514   24326993.282
        42.0004         38.0004
 15  1 11  1 49  0.0000000  0 11G27G11G16G14G03G19G32G08G23G31G04
 -17704043.90249 -13778685.40748  20331130.5574   20331137.3054   20331130.536
        57.0004         52.0004
  -2013647.07246  -1515668.03645  24940806.3764   24940816.8694   24940804.566
        39.0004         34.0004
 -11323270.85548  -8808874.57947  21827800.3374   21827804.0434   21827800.877
        51.0004         46.0004
      2555.47846     -6449.95546  23584195.6274   23584208.8864   23584195.047
        41.0004         37.0004
  -4954734.33448  -3818817.90147  22514144.2384   22514151.3744   22514143.123
        49.0004         44.0004
 -17155857.03549 -13114176.40748  21294393.2664   21294399.1074   21294394.109
        54.0004         49.0004
 -11348872.60148  -8824160.83947  22185591.7224   22185599.4254   22185591.891
        51.0004         47.0004
 -11867767.29847  -9234718.18547  23143279.0544   23143282.5764   23143279.119
        47.0004         42.0004
  -2621884.19447  -1881050.11047  23144822.4654   23144824.5224   23144822.674
        47.0004         42.0004
    296704.07747    230725.97747  23896665.8314   23896671.8594   23896665.718
        47.0004         42.0004
  -1811841.96847  -1380566.66146  24319809.4444   24319824.5404   24319807.873
        43.0004         39.0004
 15  1 11  1 49 30.0000000  0 11G27G11G16G14G03G19G32G08G23G31G04
 -17717105.83249 -13788863.50148  20328645.1724   20328651.5574   20328645.081
        57.0004         52.0004
  -2078026.97446  -1565834.54245  24928554.7054   24928566.0254   24928555.993
        39.0004         35.0004
 -11254726.29148  -8755463.22147  21840844.1994   21840847.4344   21840845.311
        51.0004         46.0004
     90291.97747     61916.08946  23600891.9924   23600907.5644   23600892.185
        43.0004         40.0004
  -4946703.91948  -3812560.52347  22515671.1754   22515680.3974   22515670.540
        49.0004         45.0004
 -17234472.17449 -13175434.79148  21279433.2484   21279438.9634   21279433.554
        54.0004         49.0004
 -11300018.79648  -8786093.08147  22194887.4804   22194895.9464   22194887.996
        51.0004         47.0004
 -11891527.52747  -9253232.68847  23138756.2654   23138761.0634   23138756.706
        47.0004         42.0004
  -2724109.01947  -1960705.81947  23125370.4614   23125370.7874   23125371.043
        47.0004         43.0004
    297259.00247    231158.36547  23896772.9064   23896777.2274   23896772.253
        46.0004         43.0004
  -1849848.23847  -1410182.16246  24312577.6054   24312591.9374   24312578.004
        43.0004         39.0004
 15  1 11  1 50  0.0000000  0 11G27G11G16G14G03G19G32G08G23G31G04
 -17729598.59549 -13798598.08448  20326267.6364   20326274.3594   20326267.545
        57.0004         52.0004
  -2142630.06646  -1616175.01745  24916259.5004   24916274.8454   24916259.853
        39.0004         34.0004
 -11186059.09048  -8701956.29947  21853911.4304   21853914.2844   21853911.334
        51.0004         46.0004
                                                                  23617647.480

  -4938336.19148  -3806040.30347  22517264.9054   22517272.6134   22517263.181
        49.0004         45.0004
 -17312729.74249 -13236414.54048  21264540.9584   21264546.4454   21264541.810
        54.0004         50.0004
 -11251012.05348  -8747906.16847  22204214.0134   22204222.4754   22204214.374
        51.0004         47.0004
 -11915433.04647  -9271860.36547  23134207.5344   23134212.2594   23134208.043
        46.0004         42.0004
  -2826184.70147  -2040245.31947  23105945.8474   23105947.8854   23105945.197
        47.0004         42.0004
    297834.99747    231607.19247  23896883.2864   23896887.0734   23896883.172
        47.0004         42.0004
  -1888104.35547  -1439992.39246  24305300.1154   24305311.9184   24305298.317
        42.0004         36.0004
 15  1 11  1 50 30.0000000  0 11G27G11G16G14G03G19G32G08G23G31G04
 -17741542.25249 -13807904.79748  20323995.0694   20324001.6544   20323994.679
        57.0004         52.0004
  -2207476.77346  -1666705.30045  24903924.2884   24903935.4934   24903924.625
        40.0004         35.0004
 -11117293.17648  -8648372.46247  21866996.5734   21867000.5394   21866996.699
        51.0004         46.0004
   -992809.95248   -781095.71346  23634460.4274   23634476.5954   23634461.872
        51.0004         41.0004
  -4929654.17048  -3799275.16847  22518917.0024   22518923.9604   22518915.072
        49.0004         45.0004
 -17390647.51449 -13297129.52048  21249713.3644   21249719.7964   21249714.103
        54.0004         50.0004
 -11201875.80248  -8709618.31347  22213564.2094   22213573.0724   22213564.741
        51.0004         47.0004
 -11939504.00847  -9290616.97247  23129627.2464   23129631.3404   23129628.006
        46.0004         42.0004
  -2928129.21947  -2119682.59647  23086546.2424   23086548.5454   23086545.575
        47.0004         43.0004
    298413.04447    232057.63047  23896992.6444   23896997.0064   23896991.388
        47.0004         42.0004
  -1926630.60547  -1470013.04446  24297966.0294   24297980.4964   24297965.291
        42.0004         38.0004
 15  1 11  1 51  0.0000000  0 11G27G11G16G14G03G19G32G08G23G31G04
 -17752922.59349 -13816772.55848  20321829.0874   20321835.9644   20321828.757
        57.0004         52.0004
  -2272552.69646  -1717414.13546  24891539.6544   24891553.0574   24891539.665
        40.0004         36.0004
 -11048418.04948  -8594703.52047  21880103.0544   21880107.0544   21880103.257
        51.0004         46.0004
   -904148.20347   -712009.05546  23651333.4654   23651349.0274   23651335.152
        46.0004         39.0004
  -4920646.46248  -3792256.25747  22520630.6334   22520637.9064   22520630.631
        49.0004         45.0004
 -17468209.24249 -13357567.06848  21234954.1674   21234959.7054   21234955.190
        54.0004         50.0004
 -11152599.41848  -8671221.29247  22222940.4574   22222949.7864   22222941.386
        51.0004         46.0004
 -11963725.78547  -9309491.10347  23125018.8554   23125023.2384   23125018.760
        46.0004         42.0004
  -3029926.34647  -2199005.03747  23067174.0894   23067176.0794   23067174.342
        47.0004         43.0004
    299008.52847    232521.65147  23897106.5114   23897110.3294   23897106.669
        47.0004         44.0004
  -1965413.65347  -1500233.90546  24290586.5424   24290600.8744   24290586.359
        45.0004         41.0004
 15  1 11  1 51 30.0000000  0 11G27G11G16G14G03G19G32G08G23G31G04
 -17763736.31949 -13825198.80248  20319771.4814   20319777.8754   20319771.233
        57.0004         52.0004
  -2337854.55046  -1768299.07346  24879111.6854   24879126.1594   24879114.355
        41.0004         36.0004
 -10979434.03848  -8540949.73447  21893230.9654   21893233.3884   21893231.448
        51.0004         46.0004
   -815177.56647   -642681.53046  23668265.4824   23668279.3054   23668263.885
        43.0004         36.0004
  -4911312.74248  -3784983.30947  22522407.0534   22522414.5464   22522406.215
        49.0004         44.0004
 -17545409.41949 -13417722.89748  21220263.4184   21220268.8764   21220264.522
        54.0004         50.0004
 -11103182.88348  -8632715.05547  22232344.9674   22232353.3754   22232345.599
        51.0004         46.0004
 -11988094.89547  -9328480.03947  23120381.1924   23120383.4394   23120380.853
        47.0004         42.0004
  -3131570.77447  -2278208.47747  23047831.4964   23047834.0304   23047831.321
        47.0004         43.0004
    299625.38947    233002.33147  23897223.7114   23897228.2004   23897222.467
        47.0004         42.0004
  -2004450.37247  -1530652.42646  24283158.2234   24283172.8584   24283158.434
        42.0004         37.0004
 15  1 11  1 52  0.0000000  0 11G27G11G16G14G03G19G32G08G23G31G04
 -17773985.18049 -13833184.89048  20317820.9584   20317827.6524   20317820.781
        57.0004         52.0004
  -2403383.51746  -1819360.96046  24866643.3484   24866657.1284   24866643.845
        41.0004         37.0004
 -10910346.78748  -8487115.50047  21906377.6354   21906380.5224   21906378.123
        51.0004         46.0004
   -725902.44347   -573116.37146  23685253.8444   23685268.2614   23685253.110
        43.0004         39.0004
  -4901657.62648  -3777459.92647  22524243.5654   22524251.2604   22524244.212
        49.0004         44.0004
 -17622247.14849 -13477596.28948  21205641.7354   21205646.7754   21205642.478
        54.0004         50.0004
 -11053631.33048  -8594103.61947  22241775.1954   22241783.2074   22241775.116
        51.0004         46.0004
 -12012612.76447  -9347584.86847  23115714.4724   23115719.3334   23115714.664
        46.0004         42.0004
  -3233062.53047  -2357292.96647  23028519.0034   23028521.1934   23028518.935
        47.0004         43.0004
    300263.11847    233499.26547  23897344.9784   23897348.8584   23897344.659
        47.0004         43.0004
  -2043742.14047  -1561269.43247  24275681.7174   24275696.1534   24275681.071
        45.0004         42.0004
 15  1 11  1 52 30.0000000  0 11G27G11G16G14G03G19G32G08G23G31G04
 -17783669.75949 -13840731.27648  20315978.1684   20315984.6564   20315977.847
        57.0004         52.0004
  -2469140.45546  -1870600.49546  24854129.9894   24854145.9894   24854129.174
        41.0004         36.0004
 -10841160.68248  -8433204.23747  21919542.6294   21919546.1164   21919542.632
        51.0004         46.0004
   -636327.73147   -503317.94346  23702297.5274   23702313.3864   23702298.947
        42.0004         36.0004
  -4891684.54648  -3769688.77047  22526142.1584   22526149.7334   22526141.127
        49.0004         44.0004
 -17698721.04449 -13537186.18148  21191088.8784   21191093.9454   21191089.895
        54.0004         50.0004
 -11003948.60148  -8555389.96847  22251229.4634   22251237.1004   22251230.014
        51.0004         46.0004
 -12037279.55847  -9366805.75347  23111020.3844   23111025.4784   23111020.464
        46.0004         42.0004
  -3334400.08047  -2436257.29147  23009236.2154   23009237.2474   23009235.646
        47.0004         43.0004
    300921.99847    234012.64147  23897469.6974   23897474.0704   23897470.027
        47.0004         42.0004
  -2083290.68747  -1592086.83346  24268156.2484   24268170.4524   24268155.445
        44.0004         38.0004
 15  1 11  1 53  0.0000000  0 11G27G11G16G14G03G19G32G08G23G31G04
 -17792787.61649 -13847836.06048  20314243.1024   20314249.6064   20314243.179
        57.0004         53.0004
  -2535122.88346  -1922015.72946  24841573.7044   24841588.8534   24841576.694
        40.0004         36.0004
 -10771876.70948  -8379216.71147  21932727.2834   21932730.8274   21932727.152
        51.0004         46.0004
   -546453.76047   -433286.48446  23719400.9884   23719417.9334   23719401.329
        43.0004         38.0004
  -4881393.95248  -3761670.19647  22528099.7544   22528107.9284   22528099.619
        49.0004         44.0004
 -17774826.41749 -13596488.91748  21176606.6934   21176611.3414   21176607.099
        54.0004         50.0004
 -10954135.67048  -8516574.85347  22260707.9124   22260717.4474   22260707.971
        51.0004         46.0004
 -12062092.43847  -9386140.47447  23106298.6724   23106302.8084   23106300.147
        46.0004         42.0004
  -3435578.88648  -2515097.92047  22989982.4134   22989984.1494   22989981.907
        48.0004         43.0004
    301605.31547    234545.15247  23897600.2804   23897604.6424   23897600.097
        47.0004         42.0004
  -2123093.35547  -1623102.11746  24260581.9914   24260595.9294   24260581.347
        43.0004         39.0004
 15  1 11  1 53 30.0000000  0 11G27G11G16G14G03G19G32G08G23G31G04
 -17801337.23549 -13854498.06948  20312616.2964   20312622.6044   20312615.908
        57.0004         53.0004
  -2601328.92046  -1973605.24845  24828975.9584   24828990.4834   24828977.457
        40.0004         35.0004
 -10702497.01848  -8325154.60447  21945930.4464   21945933.6304   21945930.314
        51.0004         46.0004
   -456281.94746   -363022.87846  23736559.4134   23736575.7964   23736559.063
        41.0004         37.0004
  -4870787.14748  -3753405.22347  22530118.9834   22530126.9314   22530117.808
        49.0004         45.0004
 -17850559.24749 -13655501.36048  21162195.0244   21162199.7814   21162195.780
        54.0004         50.0004
 -10904194.19948  -8477659.58847  22270212.2334   22270221.4604   22270212.126
        51.0004         46.0004
 -12087049.41647  -9405587.47647  23101550.3664   23101553.2764   23101550.149
        46.0004         42.0004
  -3536595.55748  -2593812.23147  22970759.7374   22970760.7374   22970759.932
        48.0004         44.0004
    302315.36747    235098.42047  23897734.7884   23897739.9004   23897734.343
        47.0004         42.0004
  -2163148.63547  -1654314.22146  24252959.3724   24252973.2694   24252959.429
        42.0004         37.0004
 15  1 11  1 54  0.0000000  0 11G27G11G16G14G03G19G32G08G23G31G04
 -17809322.09449 -13860719.99648  20311096.4394   20311103.1784   20311096.184
        57.0004         52.0004
  -2667761.84246  -2025371.54645  24816334.5664   24816345.5114   24816336.499
        39.0004         35.0004
 -10633028.44748  -8271023.24747  21959149.1574   21959152.8254   21959149.974
        51.0004         46.0004
   -365818.65047   -292532.26746  23753776.5004   23753789.8474   23753777.143
        43.0004         39.0004
  -4859870.45648  -3744898.79447  22532196.9664   22532204.4374   22532195.420
        49.0004         45.0004
 -17925920.85749 -13714224.56348  21147854.1814   21147858.7524   21147854.927
        54.0004         50.0004
 -10854131.06748  -8438649.52447  22279737.9344   22279747.3944   22279739.025
        51.0004         46.0004
 -12112153.36747  -9425148.99547  23096774.0084   23096778.0784   23096773.130
        46.0004         42.0004
  -3637451.14448  -2672401.01047  22951567.5644   22951568.5624   22951566.483
        48.0004         43.0004
    303050.17947    235670.96146  23897873.5404   23897878.9254   23897875.314
        46.0004         41.0004
  -2203460.04347  -1685725.78346  24245288.1984   24245303.4984   24245288.531
        43.0004         39.0004
 15  1 11  1 54 30.0000000  0 11G27G11G16G14G03G19G32G08G23G31G04
 -17816736.50049 -13866497.41748  20309685.8034   20309692.1374   20309685.634
        57.0004         52.0004
  -2734415.63746  -2077309.96945  24803651.9964   24803667.4324   24803652.124
        40.0004         35.0004
 -10563469.10748  -8216821.14847  21972385.0904   21972389.2214   21972385.926
        51.0004         46.0004
   -275060.71647   -221811.76246  23771045.0664   23771061.3864   23771044.999
        43.0004         40.0004
  -4848640.93548  -3736148.60047  22534332.3034   22534341.2964   22534331.965
        49.0004         44.0004
 -18000902.98749 -13772652.05248  21133585.4604   21133590.7214   21133586.230
        55.0004         50.0004
 -10803943.70748  -8399542.67047  22289288.8314   22289298.7824   22289289.533
        51.0004         46.0004
 -12137398.36947  -9444820.40947  23091968.9044   23091973.2544   23091969.457
        46.0004         42.0004
  -3738138.10648  -2750858.40047  22932407.1154   22932408.4754   22932406.519
        48.0004         43.0004
    303816.40647    236267.98146  23898021.2604   23898025.7974   23898021.001
        46.0004         41.0004
  -2244021.97446  -1717332.56846  24237571.0344   24237586.3704   24237572.013
        41.0004         36.0004
 15  1 11  1 55  0.0000000  0 11G27G11G16G14G03G19G32G08G23G31G04
 -17823582.45349 -13871831.88548  20308382.8744   20308389.2854   20308382.575
        57.0004         52.0004
  -2801292.16546  -2129421.92645  24790927.8384   24790938.3874   24790928.089
        40.0004         35.0004
 -10493824.69848  -8162552.77347  21985638.7424   21985642.5034   21985639.637
        51.0004         46.0004
   -184014.00447   -150866.57946  23788370.1244   23788388.2414   23788373.147
        43.0004         37.0004
  -4837103.41248  -3727158.43447  22536528.9844   22536537.2614   22536528.832
        49.0004         44.0004
 -18075505.59349 -13830783.82848  21119388.8274   21119393.8024   21119389.483
        55.0004         50.0004
 -10753637.26348  -8360343.03247  22298861.9454   22298871.1364   22298862.583
        51.0004         46.0004
 -12162785.77347  -9464602.81347  23087137.9894   23087141.7354   23087138.782
        46.0004         42.0004
  -3838656.13348  -2829184.14347  22913279.1474   22913280.9114   22913278.553
        48.0004         44.0004
    304613.36747    236888.98347  23898171.8094   23898176.9294   23898172.459
        46.0004         42.0004
  -2284836.78546  -1749136.17946  24229804.4974   24229817.3524   24229802.943
        41.0004         37.0004
 15  1 11  1 55 30.0000000  0 11G27G11G16G14G03G19G32G08G23G31G04
 -17829858.53949 -13876722.30548  20307188.4924   20307194.9024   20307188.157
        57.0004         52.0004
  -2868389.29346  -2181705.80145  24778155.9354   24778173.3324   24778157.762
        40.0004         35.0004
 -10424096.63048  -8108219.18947  21998907.7224   21998911.2264   21998908.191
        50.0004         46.0004
    -92679.74946    -79697.35846  23805749.8454   23805769.2664   23805750.667
        41.0004         36.0004
  -4825259.24148  -3717929.28947  22538782.5524   22538791.3994   22538781.927
        49.0004         45.0004
 -18149724.96749 -13888616.97348  21105264.6764   21105269.8584   21105265.403
        54.0004         50.0004
 -10703213.54748  -8321052.01647  22308456.9074   22308466.8354   22308458.133
        51.0004         46.0004
 -12188313.43747  -9484494.49146  23082281.5244   23082282.9634   23082279.802
        46.0004         41.0004
  -3939001.89848  -2907375.65447  22894182.7174   22894185.0754   22894183.635
        48.0004         43.0004
    305443.05047    237535.41547  23898330.1054   23898335.4194   23898330.532
        47.0004         42.0004
  -2325902.78346  -1781135.64646  24221988.7414   24222000.8984   24221989.132
        41.0004         37.0004
 15  1 11  1 56  0.0000000  0 11G27G11G16G14G03G19G32G08G23G31G04
 -17835563.18649 -13881167.44948  20306103.1314   20306109.5834   20306102.882
        57.0004         52.0004
  -2935705.31646  -2234160.19046  24765347.0924   24765362.7244   24765347.008
        40.0004         36.0004
 -10354286.95548  -8053822.03347  22012191.9604   22012195.4254   22012192.514
        50.0004         46.0004
     -1058.95347     -8304.56446  23823186.1464   23823203.1384   23823187.932
        42.0004         38.0004
  -4813109.57648  -3708462.11247  22541095.0504   22541103.4384   22541093.497
        49.0004         44.0004
 -18223556.78949 -13946148.13248  21091214.8344   21091220.4484   21091215.712
        54.0004         50.0004
 -10652674.19348  -8281670.89447  22318075.8084   22318085.1684   22318075.957
        51.0004         46.0004
 -12213979.12247  -9504493.72247  23077395.4644   23077399.8214   23077396.340
        46.0004         42.0004
  -4039171.62848  -2985430.00447  22875121.8644   22875123.9794   22875121.840
        48.0004         44.0004
    306308.56047    238209.77846  23898494.7544   23898500.0064   23898494.205
        45.0004         40.0004
  -2367218.56347  -1813329.92046  24214126.1724   24214141.9044   24214126.107
        43.0004         39.0004
 15  1 11  1 56 30.0000000  0 11G27G11G16G14G03G19G32G08G23G31G04
 -17840698.32949 -13885168.81748  20305125.6014   20305132.2564   20305125.134
        57.0004         52.0004
  -3003241.58446  -2286786.26846  24752495.4884   24752511.9494   24752497.062
        40.0004         36.0004
 -10284401.24548  -7999365.62247  22025490.8414   22025494.4714   22025491.122
        50.0004         46.0004
     90843.39347     63307.41346  23840674.3714   23840692.6484   23840675.625
        43.0004         39.0004
  -4800659.14248  -3698760.57947  22543463.6464   22543472.3374   22543463.943
        49.0004         44.0004
 -18297000.78049 -14003377.10248  21077239.2014   21077244.5824   21077240.205
        55.0004         50.0004
 -10602024.16548  -8242203.54047  22327713.6194   22327723.0924   22327713.842
        51.0004         46.0004
 -12239784.28247  -9524601.63047  23072486.2094   23072490.3054   23072486.603
        46.0004         42.0004
  -4139164.73148  -3063346.71447  22856094.1734   22856094.9754   22856094.558
        48.0004         44.0004
    307209.26047    238911.55146  23898666.1484   23898670.9494   23898666.168
        46.0004         41.0004
  -2408785.80247                  24206216.8874                   24206216.741
        45.0004
 15  1 11  1 57  0.0000000  0 11G27G11G16G14G03G19G32G08G23G31G04
 -17845258.82749 -13888722.42048  20304258.1694   20304264.1394   20304257.878
        57.0004         52.0004
  -3070992.33846  -2339579.46945  24739605.7534   24739618.8374   24739604.662
        40.0004         35.0004
 -10214437.81748  -7944848.65047  22038805.2244   22038807.6454   22038804.833
        50.0004         46.0004
    183029.38547    135140.47646  23858220.8924   23858233.7894   23858220.735
        42.0004         37.0004
  -4787905.52048  -3688822.75747  22545891.0014   22545899.4304   22545890.132
        49.0004         44.0004
 -18370049.50449 -14060298.06548  21063338.5064   21063343.4814   21063339.180
        55.0004         50.0004
 -10551261.43948  -8202648.35347  22337373.4244   22337383.2374   22337373.733
        51.0004         46.0004
 -12265723.05647  -9544813.65947  23067549.6164   23067553.0134   23067550.042
        46.0004         42.0004
  -4238973.89348  -3141120.09047  22837100.9384   22837102.8734   22837101.166
        48.0004         44.0004
    308151.60947    239645.77746  23898846.1504   23898849.7954   23898845.707
        46.0004         41.0004
  -2450600.32847  -1878302.23446  24198259.7244   24198274.0864   24198258.666
        45.0004         41.0004
 15  1 11  1 57 30.0000000  0 10G27G11G16G14G03G19G32G08G23G31
 -17849249.47449 -13891831.98348  20303498.5034   20303504.8594   20303498.360
        57.0004         52.0004
  -3138962.08746  -2392543.31945  24726671.8664   24726685.3524   24726670.944
        40.0004         35.0004
 -10144404.60448  -7890277.31147  22052131.4104   22052134.3014   22052132.302
        50.0004         46.0004
    275491.25347    207188.36946  23875813.1594   23875829.4824   23875814.008
        42.0004         38.0004
  -4774856.11448  -3678654.48247  22548374.0814   22548381.4344   22548373.757
        49.0004         44.0004
 -18442705.03749 -14116912.65548  21049512.5504   21049517.4324   21049513.331
        55.0004         50.0004
 -10500393.69848  -8163011.36447  22347053.8584   22347062.8204   22347054.231
        51.0004         46.0004
 -12291799.24947  -9565132.75147  23062586.7034   23062593.0214   23062587.021
        46.0004         42.0004
  -4338602.10948  -3218752.45547  22818141.4594   22818143.4544   22818142.131
        48.0004         44.0004
    309132.10647    240409.77746  23899032.6864   23899037.7914   23899032.745
        45.0004         40.0004
 15  1 11  1 58  0.0000000  0 10G27G11G16G14G03G19G32G08G23G31
 -17852666.37849 -13894494.47048  20302848.1334   20302854.4444   20302848.031
        57.0004         52.0004
  -3207146.30046  -2445674.25245  24713695.3894   24713708.7134   24713695.604
        39.0004         35.0004
 -10074300.94048  -7835651.06147  22065472.2904   22065475.3454   22065472.148
        50.0004         46.0004
    368229.97346    279452.01046  23893462.5274   23893475.1264   23893462.408
        41.0004         36.0004
  -4761509.85248  -3668254.88647  22550913.6124   22550922.0444   22550912.525
        49.0004         44.0004
 -18514960.88749 -14173215.80248  21035762.9484   21035767.0444   21035763.867
        55.0004         50.0004
 -10449420.27848  -8123292.02047  22356753.8204   22356763.2554   22356754.525
        51.0004         46.0004
 -12318008.21847  -9585555.34047  23057601.6034   23057603.6454   23057600.341
        46.0004         42.0004
  -4438042.70248  -3296238.63047  22799219.6514   22799220.3494   22799218.669
        48.0004         44.0004
    310155.75347    241207.41346  23899227.4664   23899231.5864   23899228.086
        46.0004         41.0004
 15  1 11  1 58 30.0000000  0 11G27G11G16G14G03G19G32G08G23G31G04
 -17855509.78349 -13896710.07648  20302307.2744   20302313.3744   20302307.100
        57.0004         52.0004
  -3275544.68946  -2498972.05845  24700681.7524   24700691.9694   24700681.480
        40.0004         35.0004
 -10004130.32448  -7780972.64047  22078824.7304   22078827.6254   22078824.728
        50.0004         45.0004
    461242.97846    351929.56046  23911162.1464   23911176.5264   23911161.564
        41.0004         37.0004
  -4747869.60348  -3657626.19947  22553510.3284   22553518.7894   22553508.936
        49.0004         44.0004
 -18586814.85849 -14229205.79948  21022089.1854   21022093.9644   21022089.709
        55.0004         50.0004
 -10398344.22248  -8083492.69647  22366473.1334   22366482.8844   22366473.630
        51.0004         46.0004
 -12344349.33747  -9606080.89047  23052586.9734   23052590.4174   23052587.912
        46.0004         42.0004
  -4537293.38048  -3373576.79947  22780331.7634   22780335.0214   22780331.655
        48.0004         44.0004
    311223.82947    242039.66647  23899431.4684   23899435.7754   23899429.999
        46.0004         42.0004
   -779782.61348   -601956.77147  24174104.5534   24174117.9634   24174103.764
        50.0004         43.0004
 15  1 11  1 59  0.0000000  0 11G27G11G16G14G03G19G32G08G23G31G04
 -17857777.53949 -13898477.12648  20301875.5194   20301881.8844   20301875.223
        57.0004         52.0004
  -3344154.18846  -2552434.33645  24687626.3084   24687639.9774   24687626.320
        40.0004         35.0004
  -9933894.03248  -7726243.05347  22092190.2164   22092193.5894   22092190.034
        50.0004         45.0004
    554529.38047    424620.26046  23928912.2704   23928929.5754   23928913.243
        42.0004         38.0004
  -4733935.83148  -3646768.81247  22556160.8544   22556170.3544   22556161.134
        49.0004         45.0004
 -18658262.64649 -14284879.28048  21008492.3434   21008497.7314   21008493.251
        55.0004         50.0004
 -10347166.39548  -8043614.06247  22376212.2634   22376222.3464   22376212.075
        51.0004         46.0004
 -12370819.67947  -9626707.12847  23047551.1524   23047555.8004   23047550.403
        46.0004         42.0004
  -4636349.79848  -3450763.59447  22761481.3754   22761485.2664   22761482.050
        48.0004         44.0004
    312339.41547    242908.91246  23899643.1624   23899647.4134   23899642.625
        46.0004         41.0004
   -822586.60347   -635310.70546  24165959.5774   24165972.6674   24165958.375
        46.0004         40.0004
 15  1 11  1 59 30.0000000  0 11G27G11G16G14G03G19G32G08G23G31G04
 -17859472.39149 -13899797.75548  20301552.9684   20301559.4394   20301552.806
        57.0004         52.0004
  -3412976.92046  -2606062.72745  24674528.2314   24674543.4394   24674529.048
        40.0004         35.0004
  -9863597.83948  -7671466.78147  22105566.1864   22105570.0704   22105566.718
        50.0004         45.0004
    648083.36946    497519.29746  23946716.1904   23946731.2104   23946716.087
        41.0004         38.0004
  -4719713.93648  -3635686.90847  22558867.7254   22558874.9484   22558866.917
        49.0004         45.0004
 -18729304.21949 -14340236.24148  20994973.6124   20994978.7464   20994974.470
        55.0004         50.0004
 -10295892.53448  -8003660.61147  22385970.0774   22385980.3344   22385970.219
        51.0004         46.0004
 -12397421.07147  -9647435.46247  23042487.4224   23042492.0664   23042487.893
        46.0004         42.0004
  -4735212.43248  -3527799.40947  22742669.4594   22742671.5374   22742670.135
        49.0004         44.0004
    313501.44947    243814.36046  23899863.7164   23899869.0054   23899863.500
        46.0004         41.0004
   -865637.27847   -668856.92546  24157766.9444   24157780.3834   24157767.530
        46.0004         41.0004
 15  1 11  2  0  0.0000000  0 11G27G11G16G14G03G19G32G08G23G31G04
 -17860591.78749 -13900669.97548  20301340.0704   20301346.2574   20301339.973
        57.0004         52.0004
  -3482010.16846  -2659855.10346  24661391.8174   24661405.2514   24661393.622
        40.0004         36.0004
  -9793242.16948  -7616644.16547  22118954.8474   22118958.9724   22118955.621
        50.0004         45.0004
    741904.72447    570626.69746  23964568.2084   23964584.8954   23964568.857
        42.0004         37.0004
  -4705203.96448  -3624380.52047  22561629.1364   22561637.4114   22561628.297
        49.0004         45.0004
 -18799934.39549 -14395272.63448  20981533.0814   20981538.4784   20981534.329
        55.0004         50.0004
 -10244522.96848  -7963632.58547  22395744.5634   22395755.5034   22395745.608
        51.0004         46.0004
 -12424149.87147  -9668263.12747  23037401.5524   23037405.2664   23037402.597
        47.0004         42.0004
  -4833876.10348  -3604680.16347  22723895.1674   22723896.6284   22723893.875
        49.0004         44.0004
    314713.77047    244758.95446  23900094.0214   23900098.6774   23900093.826
        46.0004         40.0004
                   -702592.78746                  24149539.8244   24149528.308
                        36.0004
 15  1 11  2  0 30.0000000  0 10G27G11G16G14G03G19G32G08G23G31
 -17861134.57849 -13901092.89548  20301236.3084   20301242.7324   20301236.434
        57.0004         52.0004
  -3551251.39046  -2713809.58246  24648218.1134   24648230.0114   24648215.273
        41.0004         36.0004
  -9722829.25048  -7561776.95347  22132354.0914   22132357.1764   22132354.283
        50.0004         45.0004
    835992.70647    643942.09046  23982473.3154   23982489.3334   23982473.681
        42.0004         37.0004
  -4690407.38348  -3612850.80547  22564444.7714   22564453.9894   22564444.093
        49.0004         45.0004
 -18870149.61149 -14449985.68448  20968171.8294   20968176.6354   20968172.485
        55.0004         50.0004
 -10193059.35548  -7923531.27447  22405538.5424   22405548.1444   22405539.343
        51.0004         46.0004
 -12451004.09547  -9689188.48747  23032291.2674   23032295.8524   23032292.477
        47.0004         42.0004
  -4932337.11548  -3681403.01847  22705158.4244   22705160.0594   22705158.432
        49.0004         44.0004
    315979.09847    245744.88247  23900336.7794   23900339.4104   23900335.378
        46.0004         42.0004
 15  1 11  2  1  0.0000000  0 10G27G11G16G14G03G19G32G08G23G31
 -17861103.51049 -13901068.65448  20301242.3014   20301248.8914   20301241.886
        57.0004         52.0004
  -3620703.03846  -2767927.99346  24635000.1064   24635014.3384   24634999.923
        41.0004         37.0004
  -9652364.78048  -7506869.56647  22145763.6874   22145766.0194   22145763.220
        50.0004         45.0004
    930340.76747    717460.33946  24000425.7414   24000441.8014   24000427.429
        42.0004         38.0004
  -4675329.55248  -3601101.93447  22567314.1404   22567323.0734   22567313.769
        49.0004         45.0004
 -18939950.14349 -14504375.59248  20954889.2744   20954893.9044   20954889.843
        55.0004         50.0004
 -10141507.33548  -7883361.07947  22415347.7164   22415358.3104   22415348.481
        51.0004         46.0004
 -12477985.23747  -9710212.75847  23027157.9384   23027159.8854   23027157.634
        46.0004         42.0004
  -5030595.97548  -3757968.35747  22686460.5904   22686462.3544   22686460.123
        49.0004         44.0004
    317296.23747    246771.20946  23900585.8114   23900591.3884   23900585.017
        46.0004         41.0004
 15  1 11  2  1 30.0000000  0 11G27G11G16G14G03G19G32G08G23G31G04
 -17860494.96049 -13900594.42648  20301358.2204   20301364.8094   20301358.017
        57.0004         52.0004
  -3690360.38647  -2822206.66646  24621746.7484   24621760.3224   24621746.294
        42.0004         37.0004
  -9581847.92648  -7451921.36247  22159182.0424   22159185.0434   22159182.261
        50.0004         45.0004
   1024950.51947    791182.22146  24018430.7594   24018446.3244   24018429.977
        42.0004         39.0004
  -4659969.35148  -3589133.03747  22570237.9444   22570247.0104   22570236.801
        49.0004         45.0004
 -19009329.40049 -14558437.24148  20941686.5504   20941691.2604   20941687.119
        55.0004         50.0004
 -10089866.01148  -7843121.30147  22425175.5934   22425185.3884   22425176.484
        51.0004         46.0004
 -12505088.65847  -9731332.31147  23022000.4734   23022003.5354   23021999.913
        47.0004         42.0004
  -5128646.42648  -3834371.28047  22667801.8574   22667804.0014   22667801.400
        49.0004         44.0004
    318670.07147    247841.69246  23900846.8404   23900852.9234   23900847.834
        45.0004         41.0004
                                                                  24124534.051

 15  1 11  2  2  0.0000000  0 10G27G11G16G14G03G19G32G08G23G31
 -17859309.96149 -13899671.01348  20301583.5624   20301589.9824   20301583.524
        57.0004         52.0004
  -3760223.76246  -2876645.82546  24608450.3984   24608466.8624   24608449.815
        41.0004         37.0004
  -9511282.95948  -7396935.65747  22172610.1264   22172614.0244   22172610.559
        50.0004         45.0004
   1119817.75547    865104.78946  24036483.8524   24036500.2184   24036481.652
        43.0004         40.0004
  -4644330.37248  -3576946.91247  22573213.1124   22573221.2934   22573212.954
        49.0004         45.0004
 -19078285.93649 -14612169.50048  20928564.7864   20928568.8244   20928565.398
        55.0004         50.0004
 -10038139.17548  -7802814.89347  22435019.3834   22435028.5274   22435019.021
        50.0004         46.0004
 -12532314.19447  -9752547.03047  23016819.0504   23016825.1334   23016819.031
        47.0004         42.0004
  -5226486.88948  -3910610.60147  22649182.8794   22649185.4564   22649184.054
        49.0004         44.0004
    320101.38547    248957.05047  23901123.8944   23901124.1044   23901121.107
        47.0004         43.0004
 15  1 11  2  2 30.0000000  0 11G27G11G16G14G03G19G32G08G23G31G04
 -17857547.41349 -13898297.56148  20301918.9304   20301925.2134   20301918.761
        57.0004         52.0004
  -3830290.80146  -2931243.68846  24595117.3574   24595132.8074   24595119.025
        41.0004         37.0004
  -9440671.91048  -7341914.05347  22186047.2344   22186049.6494   22186047.593
        50.0004         45.0004
   1214940.66747    939226.45446  24054583.2644   24054600.6484   24054584.513
        42.0004         37.0004
  -4628414.04748  -3564544.66247  22576242.0744   22576251.0834   22576241.294
        49.0004         44.0004
 -19146816.44149 -14665569.78048  20915523.5124   20915527.8344   20915523.909
        55.0004         50.0004
  -9986328.57648  -7762443.20847  22444878.8934   22444888.2854   22444878.826
        50.0004         46.0004
 -12559659.60447  -9773855.14347  23011614.0224   23011620.1434   23011615.093
        47.0004         42.0004
  -5324113.60548  -3986683.35147  22630605.5674   22630607.4834   22630605.497
        49.0004         44.0004
    321592.71748    250119.03247  23901403.5014   23901408.8054   23901402.986
        48.0004         43.0004
                                                                  24107642.993

 15  1 11  2  3  0.0000000  0 11G27G11G16G14G03G19G32G08G23G31G04
 -17855208.32549 -13896474.86148  20302364.2334   20302370.5344   20302363.908
        57.0004         52.0004
  -3900561.85547  -2986000.49146  24581744.6954   24581759.8704   24581744.785
        42.0004         37.0004
  -9370018.63648  -7286859.53947  22199491.4444   22199495.4374   22199492.509
        50.0004         45.0004
   1310316.12246   1013545.10046  24072735.8864   24072750.8304   24072736.116
        41.0004         36.0004
  -4612223.91248  -3551929.06747  22579323.3584   22579332.5554   22579323.214
        49.0004         44.0004
 -19214918.75749 -14718636.42148  20902563.9544   20902568.4044   20902564.702
        55.0004         50.0004
  -9934437.87348  -7722009.11447  22454753.5844   22454762.9454   22454753.384
        50.0004         45.0004
 -12587124.51247  -9795256.38247  23006389.6684   23006393.4774   23006390.203
        47.0004         42.0004
  -5421525.17248  -4062588.46447  22612068.0494   22612070.2244   22612067.989
        49.0004         44.0004
    323144.43547    251328.06746  23901700.6004   23901704.9004   23901699.733
        45.0004         40.0004
                                                                  24099118.871

 15  1 11  2  3 30.0000000  0 11G27G11G16G14G03G19G32G08G23G31G04
 -17852290.48049 -13894201.17548  20302919.2474   20302925.6484   20302919.193
        57.0004         52.0004
  -3971033.70047  -3040913.79746  24568334.6474   24568349.6584   24568333.949
        42.0004         38.0004
  -9299323.67648  -7231772.54547  22212944.5924   22212948.5604   22212945.093
        50.0004         45.0004
   1405943.38346   1088059.74546  24090932.4164   24090947.6654   24090931.963
        41.0004         37.0004
  -4595760.23048  -3539100.32447  22582456.9094   22582465.0584   22582455.746
        49.0004         44.0004
 -19282587.70149 -14771365.35248  20889687.3244   20889691.7744   20889687.801
        55.0004         50.0004
  -9882467.51748  -7681512.93947  22464642.7024   22464653.5384   22464643.608
        50.0004         46.0004
 -12614705.80647  -9816748.28847  23001141.2444   23001146.0434   23001139.860
        47.0004         42.0004
  -5518716.59948  -4138322.02947  22593573.8484   22593575.9164   22593573.880
        49.0004         44.0004
    324760.55247    252587.31346  23902007.2444   23902011.7474   23902006.634
        46.0004         40.0004
   -480432.15148   -367508.40646  24090569.7364   24090582.6144   24090567.863
        52.0004         36.0004
 15  1 11  2  4  0.0000000  0 11G27G11G16G14G03G19G32G08G23G31G04
 -17848795.56849 -13891477.82648  20303584.5534   20303590.7884   20303584.279
        57.0004         52.0004
  -4041707.08947  -3095984.16646  24554885.8804   24554899.6214   24554886.552
        42.0004         37.0004
  -9228591.43048  -7176656.51247  22226404.2524   22226407.7684   22226404.667
        50.0004         45.0004
   1501818.77247   1162768.06746  24109176.9544   24109194.5444   24109175.342
        42.0004         37.0004
  -4579027.16148  -3526061.64847  22585640.0874   22585649.2174   22585638.526
        49.0004         44.0004
 -19349823.11049 -14823756.47548  20876892.8694   20876897.0324   20876893.551
        55.0004         50.0004
  -9830421.84848  -7640958.10047  22474547.0694   22474557.2704   22474547.360
        50.0004         45.0004
 -12642403.71847  -9838331.08947  22995869.0264   22995873.4404   22995870.127
        47.0004         42.0004
  -5615686.92548  -4213883.31747  22575120.8514   22575123.1124   22575120.335
        49.0004         44.0004
    326440.83247    253896.48446  23902327.3274   23902332.4654   23902326.870
        46.0004         41.0004
   -525650.47547   -402743.35046  24081961.7244   24081978.0764   24081963.919
        47.0004         37.0004
 15  1 11  2  4 30.0000000  0 10G27G11G16G14G03G19G32G08G23G31
 -17844722.92449 -13888304.30048  20304359.2414   20304365.6874   20304358.955
        57.0004         52.0004
  -4112580.02047  -3151209.95846  24541400.7594   24541413.8584   24541400.304
        42.0004         38.0004
  -9157824.23248  -7121513.21947  22239870.7824   22239874.8924   22239871.071
        50.0004         45.0004
   1597939.38347   1237667.25846  24127466.5814   24127482.7674   24127467.505
        42.0004         37.0004
  -4562026.37348  -3512814.37747  22588874.6744   22588883.9854   22588874.199
        49.0004         44.0004
 -19416621.55249 -14875807.08948  20864180.6904   20864185.7524   20864181.706
        55.0004         50.0004
  -9778302.74048  -7600346.03347  22484465.3684   22484475.5744   22484465.735
        50.0004         45.0004
 -12670215.99247  -9860002.99347  22990577.1844   22990581.2424   22990576.772
        47.0004         42.0004
  -5712432.69048  -4289269.63447  22556709.8834   22556712.7564   22556710.524
        49.0004         44.0004
    328187.95747    255257.81547  23902658.6274   23902663.6804   23902658.508
        46.0004         42.0004
 15  1 11  2  5  0.0000000  0 11G27G11G16G14G03G19G32G08G23G31G04
 -17840070.05349 -13884678.64548  20305244.9144   20305250.8644   20305244.762
        57.0004         52.0004
  -4183649.42947  -3206588.94346  24527875.1464   24527890.7704   24527876.948
        42.0004         38.0004
  -9087022.25248  -7066342.83047  22253344.4884   22253348.6134   22253344.265
        50.0004         45.0004
   1694305.59747   1312757.80846  24145804.1194   24145819.6684   24145803.457
        43.0004         38.0004
  -4544757.92148  -3499358.53247  22592161.7654   22592170.3964   22592160.440
        49.0004         44.0004
 -19482977.63349 -14927513.03248  20851553.5634   20851558.3304   20851554.820
        55.0004         50.0004
  -9726110.37548  -7559676.86747  22494397.2554   22494407.6104   22494397.458
        50.0004         45.0004
 -12698139.12647  -9881761.29147  22985264.1784   22985267.8574   22985263.795
        47.0004         42.0004
  -5808948.96048  -4364477.09647  22538344.0094   22538346.8424   22538344.292
        49.0004         44.0004
    330005.93447    256674.31247  23903004.9794   23903011.2774   23903004.282
        46.0004         42.0004
   -392656.57849   -295667.12946  24064619.7984   24064634.0464   24064620.277
        54.0004         41.0004
 15  1 11  2  5 30.0000000  0 11G27G11G16G14G03G19G32G08G23G31G04
 -17834841.35849 -13880604.29048  20306239.8884   20306245.9324   20306239.764
        57.0004         52.0004
  -4254918.03147  -3262123.04746  24514315.0484   24514329.2634   24514314.950
        43.0004         39.0004
  -9016192.66048  -7011150.92447  22266823.4724   22266825.9484   22266822.941
        50.0004         45.0004
   1790911.42647   1388035.41246  24164187.8724   24164204.4384   24164188.570
        43.0004         39.0004
  -4527228.56448  -3485699.39247  22595497.6184   22595506.1474   22595496.651
        49.0004         44.0004
 -19548892.96149 -14978875.51548  20839010.4854   20839014.8644   20839010.888
        55.0004         50.0004
  -9673851.71248  -7518956.05947  22504341.8864   22504352.2024   22504342.088
        50.0004         45.0004
 -12726176.05947  -9903608.24147  22979929.1754   22979932.8894   22979928.045
        47.0004         42.0004
  -5905237.05048  -4439506.78147  22520020.8824   22520022.3514   22520021.139
        49.0004         44.0004
    331892.35947    258144.17347  23903363.4064   23903369.9464   23903363.038
        47.0004         43.0004
                                                                  24055878.130

 15  1 11  2  6  0.0000000  0 11G27G11G16G14G03G19G32G08G23G31G04
 -17829031.64449 -13876077.19748  20307345.3014   20307351.6164   20307345.068
        57.0004         52.0004
  -4326379.71647  -3317807.63146  24500715.2344   24500731.0294   24500716.127
        43.0004         39.0004
  -8945333.17448  -6955935.73447  22280307.0054   22280309.5904   22280306.861
        49.0004         45.0004
   1887758.12947   1463500.65946  24182617.0934   24182634.6414   24182615.171
        42.0004         38.0004
  -4509435.51648  -3471834.76547  22598883.4384   22598892.8964   22598882.711
        49.0004         44.0004
 -19614359.34749 -15029888.16448  20826552.3354   20826556.8744   20826552.639
        55.0004         50.0004
  -9621524.00248  -7478181.43247  22514300.1084   22514310.2634   22514300.594
        50.0004         45.0004
 -12754319.87347  -9925538.49147  22974572.2374   22974577.7304   22974573.203
        47.0004         42.0004
  -6001289.25148  -4514352.63547  22501742.8314   22501745.1694   22501742.531
        49.0004         44.0004
    333853.94047    259672.52946  23903737.2984   23903742.6134   23903737.200
        45.0004         39.0004
                                                                  24047096.013

 15  1 11  2  6 30.0000000  0 10G27G11G16G03G19G32G08G23G31G04
 -17822635.02849 -13871092.78348  20308562.5254   20308568.6484   20308562.212
        57.0004         52.0004
  -4398027.10447  -3373636.87546  24487081.7414   24487097.4314   24487083.053
        43.0004         38.0004
  -8874439.90148  -6900694.19647  22293797.0704   22293800.8374   22293797.183
        49.0004         45.0004
  -4491375.22448  -3457761.90547  22602320.4544   22602329.2484   22602319.774
        49.0004         44.0004
 -19679368.58549 -15080544.59348  20814181.4874   20814185.8514   20814182.354
        55.0004         50.0004
  -9569123.89948  -7437350.41247  22524270.7344   22524280.6034   22524271.931
        50.0004         45.0004
 -12782563.46747  -9947546.47547  22969198.5434   22969202.6524   22969198.068
        47.0004         42.0004
  -6097096.50848  -4589007.64047  22483510.7994   22483513.0694   22483512.046
        49.0004         44.0004
    335898.19847    261265.40046  23904126.6784   23904131.3674   23904126.902
        46.0004         41.0004
   -412248.44547   -313830.15146  24038270.8854   24038283.7334   24038270.463
        47.0004         38.0004
 15  1 11  2  7  0.0000000  0 11G27G11G16G14G03G19G32G08G23G31G04
 -17815670.16449 -13865665.57048  20309887.8744   20309894.0094   20309887.693
        57.0004         52.0004
  -4469877.92547  -3429624.65646  24473409.0804   24473424.5514   24473409.214
        43.0004         39.0004
  -8803534.55548  -6845443.26347  22307290.6664   22307293.7554   22307290.150
        49.0004         45.0004
                                                                  24219608.941

  -4473068.70548  -3443497.17847  22605803.8674   22605813.1864   22605803.149
        49.0004         44.0004
 -19743936.42649 -15130857.09148  20801894.6744   20801899.1194   20801895.677
        55.0004         50.0004
  -9516672.45648  -7396479.38847  22534252.8244   22534262.9774   22534253.152
        50.0004         45.0004
 -12810923.86547  -9969645.48447  22963801.5064   22963806.4524   22963802.297
        47.0004         42.0004
  -6192674.81748  -4663484.22847  22465323.2884   22465325.1874   22465323.340
        49.0004         44.0004
    338008.42847    262909.67446  23904529.7514   23904532.6054   23904528.493
        46.0004         40.0004
                                                                  24029396.529

 15  1 11  2  7 30.0000000  0 10G27G11G16G14G03G19G32G08G23G31
 -17808127.57849 -13859788.18648  20311322.9034   20311329.2924   20311322.392
        57.0004         52.0004
  -4541921.26747  -3485762.44246  24459700.5674   24459714.6594   24459699.990
        43.0004         39.0004
  -8732610.37948  -6790177.64447  22320786.2954   22320790.0524   22320786.547
        49.0004         45.0004
   -106332.02848    -87889.23646  24238173.1994   24238188.8354   24238173.340
        51.0004         38.0004
  -4454508.82548  -3429035.04147  22609335.9084   22609344.3424   22609334.822
        49.0004         44.0004
 -19808050.61749 -15180816.09948  20789694.3584   20789698.9444   20789695.140
        55.0004         50.0004
  -9464162.64248  -7355562.87847  22544244.6254   22544255.5784   22544245.249
        50.0004         45.0004
 -12839389.88147  -9991826.79947  22958384.6894   22958388.8174   22958385.204
        47.0004         42.0004
  -6288011.82648  -4737772.79247  22447180.9174   22447183.4834   22447182.087
        49.0004         44.0004
    340196.07047    264614.16447  23904944.8784   23904950.0564   23904944.664
        47.0004         43.0004
 15  1 11  2  8  0.0000000  0 10G27G11G16G03G19G32G08G23G31G04
 -17800001.95749 -13853456.49248  20312869.3384   20312875.4404   20312869.113
        57.0004         52.0004
  -4614150.54347  -3542045.04746  24445954.3164   24445968.4634   24445955.006
        43.0004         38.0004
  -8661664.28048  -6734894.95047  22334286.8284   22334290.3794   22334287.365
        49.0004         45.0004
  -4435692.50548  -3414373.07547  22612916.8764   22612926.0584   22612916.105
        49.0004         44.0004
 -19871702.97349 -15230415.24548  20777581.5534   20777585.7314   20777582.508
        55.0004         51.0004
  -9411591.53748  -7314598.63747  22554249.6034   22554259.8604   22554249.193
        50.0004         45.0004
 -12867954.60747 -10014085.01147  22952949.0144   22952953.0714   22952948.690
        47.0004         42.0004
  -6383099.19248  -4811866.83547  22429086.3424   22429089.1454   22429086.775
        49.0004         45.0004
    342468.00947    266384.37746  23905376.8754   23905382.2774   23905375.907
        46.0004         41.0004
   -223352.53949   -162805.44347  24011523.1964   24011537.3184   24011523.623
        55.0004         43.0004
 15  1 11  2  8 30.0000000  0 11G27G11G16G14G03G19G32G08G23G31G04
 -17791303.09749 -13846678.11448  20314524.6814   20314530.8204   20314524.309
        57.0004         52.0004
  -4686574.11647  -3598479.06646  24432174.5034   24432187.0524   24432173.027
        42.0004         37.0004
  -8590708.72748  -6679604.87447  22347789.3364   22347792.8374   22347789.293
        49.0004         45.0004
    -48129.01148    -46741.30845  24275427.3194   24275444.2694   24275428.863
        51.0004         35.0004
  -4416631.88148  -3399520.75147  22616543.2704   22616553.4644   22616543.252
        49.0004         44.0004
 -19934900.35449 -15279659.85648  20765555.4814   20765559.5694   20765555.817
        55.0004         51.0004
  -9358971.22748  -7273596.02047  22564262.8464   22564273.3994   22564263.437
        50.0004         45.0004
 -12896626.10947 -10036426.44547  22947492.9264   22947497.4684   22947493.038
        47.0004         43.0004
  -6477944.11748  -4885771.96347  22411038.7164   22411040.3704   22411038.399
        49.0004         45.0004
    344816.63847    268214.40546  23905824.0374   23905829.0914   23905822.777
        46.0004         41.0004
   -270666.32448   -199672.89946  24002519.2364   24002535.7634   24002519.030
        50.0004         41.0004
 15  1 11  2  9  0.0000000  0 11G27G11G16G14G03G19G32G08G23G31G04
 -17782018.35149 -13839443.19848  20316291.3454   20316297.4934   20316291.213
        57.0004         52.0004
  -4759178.04447  -3655053.60846  24418358.2054   24418372.1834   24418358.174
        42.0004         37.0004
  -8519733.55248  -6624299.52947  22361296.0094   22361298.1454   22361296.721
        49.0004         45.0004
                                                                  24294120.219

  -4397316.54348  -3384469.94647  22620219.8184   22620227.7734   22620219.464
        49.0004         44.0004
 -19997627.57749 -15328538.11248  20753618.5654   20753622.7414   20753619.121
        55.0004         51.0004
  -9306291.51348  -7232547.11447  22574287.6894   22574297.8394   22574287.639
        50.0004         45.0004
 -12925390.23747 -10058840.04247  22942019.0284   22942023.5264   22942019.007
        47.0004         42.0004
  -6572531.00448  -4959476.02247  22393039.5354   22393041.9054   22393038.588
        49.0004         45.0004
    347256.58447    270115.57746  23906288.5624   23906293.8864   23906288.134
        46.0004         41.0004
   -318200.27947   -236711.69546  23993474.4124   23993486.1884   23993474.550
        46.0004         38.0004
 15  1 11  2  9 30.0000000  0 11G27G11G16G14G03G19G32G08G23G31G04
 -17772162.16749 -13831763.01148  20318166.9814   20318172.9344   20318166.782
        57.0004         52.0004
  -4831975.10047  -3711778.61746  24404505.9094   24404519.4834   24404505.681
        42.0004         38.0004
  -8448755.50448  -6568991.95447  22374803.2764   22374805.4324   22374802.691
        49.0004         44.0004
      -540.55848     -5631.26146  24312852.9684   24312869.7274   24312853.445
        51.0004         36.0004
  -4377763.17448  -3369233.65647  22623940.9304   22623949.8334   22623939.452
        49.0004         44.0004
 -20059896.17749 -15377058.99348  20741769.2154   20741773.1944   20741769.878
        55.0004         51.0004
  -9253568.99848  -7191464.88247  22584320.9234   22584331.0694   22584321.094
        50.0004         45.0004
 -12954259.58247 -10081335.62647  22936524.5084   22936529.2694   22936524.907
        47.0004         42.0004
  -6666870.83048  -5032987.56947  22375086.8424   22375088.4224   22375087.244
        49.0004         45.0004
    349775.31047    272078.11447  23906768.7174   23906773.2194   23906767.892
        47.0004         42.0004
   -365967.41647                  23984384.1494                   23984384.628
        42.0004
 15  1 11  2 10  0.0000000  0 11G27G11G16G14G03G19G32G08G23G31G04
 -17761724.65249 -13823629.84048  20320153.0724   20320159.0764   20320152.895
        57.0004         52.0004
  -4904953.85747  -3768645.13646  24390617.0684   24390632.2894   24390617.626
        43.0004         38.0004
  -8377767.10648  -6513676.30347  22388311.3634   22388314.6684   22388310.652
        49.0004         44.0004
     98128.41347     71253.99546  24331628.3784   24331643.1294   24331628.742
        46.0004         37.0004
  -4357964.11148  -3353805.93747  22627707.5914   22627718.0594   22627706.980
        49.0004         44.0004
 -20121693.24949 -15425212.46648  20730009.4284   20730013.3924   20730010.054
        55.0004         51.0004
  -9200796.12448  -7150343.42847  22594363.0804   22594373.6494   22594363.662
        49.0004         45.0004
 -12983222.63947 -10103904.23647  22931013.9074   22931018.1504   22931014.632
        47.0004         42.0004
  -6760950.83448  -5106296.65247  22357184.2274   22357185.9314   22357183.823
        49.0004         45.0004
    352384.52148    274111.18047  23907264.7664   23907270.3184   23907264.913
        48.0004         44.0004
   -413957.09847                  23975250.9404                   23975251.613
        43.0004
 15  1 11  2 10 30.0000000  0 11G27G11G16G14G03G19G32G08G23G31G04
 -17750706.59149 -13815044.30048  20322249.5454   20322255.8234   20322249.322
        57.0004         52.0004
  -4978113.40447  -3825652.53446  24376695.1274   24376711.1894   24376694.379
        43.0004         38.0004
  -8306771.51748  -6458355.04747  22401821.1084   22401824.6104   22401821.192
        49.0004         44.0004
    197015.74647    148309.05245  24350448.9424   24350461.3864   24350447.305
        42.0004         35.0004
  -4337922.30548  -3338189.05547  22631520.9684   22631530.6214   22631521.337
        48.0004         44.0004
 -20183017.09949 -15472997.18848  20718339.9394   20718344.2084   20718340.783
        55.0004         51.0004
  -9147975.83348  -7109185.00647  22604414.2144   22604425.2064   22604415.161
        49.0004         45.0004
 -13012278.41747 -10126545.10347  22925484.5904   22925489.7584   22925484.066
        47.0004         43.0004
  -6854768.68548  -5179401.45447  22339330.5174   22339333.1344   22339331.305
        50.0004         45.0004
    355085.39247    276215.66846  23907779.3724   23907785.0514   23907779.285
        47.0004         41.0004
   -462168.19347                  23966076.7794                   23966076.700
        43.0004
 15  1 11  2 11  0.0000000  0 11G27G11G16G14G03G19G32G08G23G31G04
 -17739116.05449 -13806012.67948  20324455.5214   20324461.4104   20324455.166
        57.0004         52.0004
  -5051460.67947  -3882806.28246  24362737.7334   24362752.2354   24362738.624
        43.0004         39.0004
  -8235779.08548  -6403036.26347  22415330.1684   22415333.5594   22415331.343
        49.0004         44.0004
    296112.00046    225527.10145  24369304.3894   24369322.8344   24369304.951
        40.0004         34.0004
  -4317648.03548  -3322391.04147  22635380.0124   22635388.7264   22635379.913
        48.0004         44.0004
 -20243872.54149 -15520416.91548  20706759.7194   20706763.7924   20706760.092
        55.0004         51.0004
  -9095118.42848  -7067997.68647  22614473.2344   22614483.7674   22614472.883
        49.0004         45.0004
 -13041432.91447 -10149262.89347  22919937.7474   22919941.5884   22919936.935
        47.0004         43.0004
  -6948329.60448  -5252306.06047  22321527.4814   22321528.0804   22321527.050
        50.0004         45.0004
    357872.20247    278387.11846  23908308.8384   23908314.9464   23908309.654
        46.0004         40.0004
   -510607.86747                  23956858.9854                   23956858.792
        46.0004
 15  1 11  2 11 30.0000000  0 11G27G11G16G14G03G19G32G08G23G31G04
 -17726940.53249 -13796525.22548  20326772.3224   20326778.4414   20326772.164
        57.0004         52.0004
  -5124981.55747  -3940095.29346  24348746.5444   24348762.0484   24348747.713
        43.0004         38.0004
  -8164779.47048  -6347711.87947  22428841.2694   22428845.5664   22428841.302
        49.0004         44.0004
    395427.70646    302916.26446  24388203.5634   24388217.8614   24388205.396
        40.0004         36.0004
  -4297130.89448  -3306403.78847  22639284.5594   22639293.0484   22639283.810
        48.0004         44.0004
 -20304244.20449 -15567459.67148  20695271.1944   20695274.8834   20695271.735
        55.0004         51.0004
  -9042213.48348  -7026773.30147  22624540.4404   22624551.6464   22624541.679
        49.0004         45.0004
 -13070671.61847 -10172046.28647  22914372.3684   22914378.3284   22914372.752
        47.0004         43.0004
  -7041618.07248  -5324998.36547  22303774.8224   22303777.1414   22303775.442
        50.0004         45.0004
    360759.47647    280636.90047  23908858.2304   23908864.2454   23908858.085
        46.0004         43.0004
   -559262.84248   -424550.97647  23947600.6814   23947614.3034   23947600.948
        48.0004         45.0004
 15  1 11  2 12  0.0000000  0 11G27G11G16G14G03G19G32G08G23G31G04
 -17714191.02349 -13786590.50648  20329198.4694   20329204.5204   20329198.173
        57.0004         52.0004
  -5198685.38547  -3997526.88646  24334721.2964   24334737.0004   24334720.968
        43.0004         38.0004
  -8093786.03348  -6292392.30347  22442350.5414   22442354.7734   22442350.810
        49.0004         44.0004
    494949.17346    380465.97545  24407142.3054   24407159.0754   24407143.345
        39.0004         34.0004
  -4276383.99248  -3290237.49147  22643232.9244   22643241.9034   22643231.267
        48.0004         44.0004
 -20364140.35249 -15614131.89948  20683873.5334   20683876.8994   20683874.192
        55.0004         51.0004
  -8989274.16948  -6985522.13847  22634614.5274   22634625.2124   22634615.725
        49.0004         45.0004
 -13100003.76647 -10194902.50247  22908791.7314   22908795.3994   22908792.339
        47.0004         43.0004
  -7134641.91848  -5397484.47047  22286073.6524   22286074.7004   22286072.673
        50.0004         45.0004
    363738.16048    282957.91847  23909425.7114   23909430.6294   23909426.247
        48.0004         43.0004
   -608142.32547   -462638.30646  23938299.1884   23938313.2124   23938299.670
        47.0004         40.0004
 15  1 11  2 12 30.0000000  0  9G27G11G16G03G19G32G08G23G31
 -17700854.47149 -13776198.35748  20331736.3224   20331742.2584   20331736.017
        57.0004         52.0004
  -5272557.09247  -4055089.28446  24320664.7374   24320679.5114   24320665.224
        42.0004         38.0004
  -8022787.65148  -6237068.87447  22455861.0924   22455863.4514   22455860.835
        49.0004         44.0004
  -4255396.42848  -3273883.68247  22647226.1544   22647235.8204   22647225.658
        49.0004         44.0004
 -20423545.16649 -15660421.28048  20672568.9574   20672572.5854   20672569.647
        55.0004         51.0004
  -8936289.49048  -6944235.62847  22644698.1974   22644709.0404   22644698.597
        50.0004         45.0004
 -13129414.33747 -10217819.83447  22903196.3654   22903198.4024   22903195.285
        47.0004         43.0004
  -7227384.95348  -5469751.76147  22268424.4654   22268426.3504   22268424.608
        50.0004         45.0004
    366823.34647    285361.86847  23910013.2894   23910017.1174   23910011.942
        47.0004         42.0004
 15  1 11  2 13  0.0000000  0  9G27G11G16G03G19G32G08G23G31
 -17686949.85949 -13765363.56448  20334382.3694   20334388.0164   20334382.337
        57.0004         52.0004
  -5346614.29347  -4112796.19446  24306572.3574   24306587.4844   24306572.455
        42.0004         38.0004
  -7951805.95048  -6181758.44747  22469368.3404   22469371.5374   22469368.938
        49.0004         44.0004
  -4234189.28748  -3257358.76147  22651262.5114   22651271.3204   22651261.878
        49.0004         44.0004
 -20482474.61049 -15706340.23748  20661354.5104   20661358.6404   20661355.378
        55.0004         51.0004
  -8883280.52948  -6902930.19847  22654785.4434   22654796.6254   22654785.246
        49.0004         45.0004
 -13158920.24047 -10240811.44647  22897579.4634   22897584.3404   22897579.624
        47.0004         42.0004
  -7319862.83748  -5541812.43747  22250825.9874   22250828.8314   22250825.935
        50.0004         45.0004
    369998.33747    287835.81547  23910616.5564   23910621.5574   23910615.249
        46.0004         42.0004
 15  1 11  2 13 30.0000000  0  9G27G11G16G03G19G32G08G23G31
 -17672466.23449 -13754077.59648  20337138.5354   20337144.2684   20337138.401
        57.0004         52.0004
  -5420844.09647  -4170637.60446  24292447.0624   24292459.7694   24292445.333
        42.0004         38.0004
  -7880831.59748  -6126453.74547  22482874.4464   22482877.7064   22482875.145
        49.0004         44.0004
  -4212753.63148  -3240655.78247  22655341.3194   22655350.4764   22655340.805
        48.0004         44.0004
 -20540914.25949 -15751877.53348  20650233.8624   20650237.9824   20650234.616
        55.0004         51.0004
  -8830238.32248  -6861598.86147  22664878.9884   22664890.1404   22664879.420
        49.0004         45.0004
 -13188508.48247 -10263867.22447  22891948.5894   22891952.2484   22891949.161
        47.0004         42.0004
  -7412061.48448  -5613655.52647  22233280.7134   22233283.5814   22233281.361
        50.0004         45.0004
    373276.04647    290389.87747  23911241.5664   23911245.4294   23911241.242
        47.0004         42.0004
 15  1 11  2 14  0.0000000  0 10G27G11G16G03G19G32G08G23G31G04
 -17657404.04149 -13742340.79948  20340004.5804   20340010.4824   20340004.244
        57.0004         52.0004
  -5495244.93547  -4228612.28146  24278288.8544   24278303.8524   24278288.206
        43.0004         38.0004
  -7809867.27248  -6071156.84447  22496378.2694   22496382.6874   22496379.384
        49.0004         44.0004
  -4191091.94548  -3223776.68147  22659463.6634   22659473.2774   22659462.760
        48.0004         44.0004
 -20598862.07849 -15797031.58248  20639206.7964   20639210.6604   20639207.525
        55.0004         51.0004
  -8777165.28748  -6820243.50047  22674978.3704   22674991.0454   22674978.893
        49.0004         45.0004
 -13218177.38747 -10286985.85647  22886302.8394   22886308.5034   22886303.170
        47.0004         42.0004
  -7503978.04248  -5685278.80947  22215790.3344   22215792.2114   22215790.410
        50.0004         46.0004
    376658.30447    293025.31846  23911883.7454   23911890.4114   23911882.653
        46.0004         41.0004
                                                                  23900681.098

 15  1 11  2 14 30.0000000  0 10G27G11G16G03G19G32G08G23G31G04
 -17641767.47649 -13730156.43948  20342979.9044   20342985.6524   20342980.012
        57.0004         52.0004
  -5569819.41047  -4286722.24146  24264097.3254   24264111.9944   24264097.618
        43.0004         39.0004
  -7738919.51048  -6015872.85347  22509879.1594   22509882.8064   22509879.597
        49.0004         44.0004
  -4169210.44048  -3206726.27747  22663627.7844   22663637.1334   22663626.687
        49.0004         44.0004
 -20656319.05849 -15841803.16148  20628272.8874   20628276.8514   20628273.670
        55.0004         51.0004
  -8724067.58448  -6778868.92747  22685083.2274   22685095.0854   22685084.262
        49.0004         45.0004
 -13247929.11947 -10310169.02547  22880641.5074   22880646.0384   22880642.398
        47.0004         43.0004
  -7595613.53648  -5756683.07447  22198352.5264   22198354.7554   22198353.291
        50.0004         46.0004
    380143.38648    295740.82947  23912546.8304   23912552.2884   23912547.533
        48.0004         44.0004
                                                                  23891172.732

 15  1 11  2 15  0.0000000  0 10G27G11G16G03G19G32G08G23G31G04
 -17625554.32049 -13717522.78648  20346065.2014   20346071.2504   20346064.972
        57.0004         52.0004
  -5644563.31347  -4344964.23346  24249872.8784   24249889.7584   24249874.199
        44.0004         39.0004
  -7667987.56248  -5960601.19447  22523377.4544   22523380.2814   22523377.744
        49.0004         44.0004
  -4147108.90148  -3189504.42847  22667833.1854   22667842.8134   22667833.026
        48.0004         44.0004
 -20713280.19149 -15886188.37648  20617433.8104   20617437.5394   20617434.528
        55.0004         51.0004
  -8670944.90248  -6737474.87847  22695191.6284   22695203.4044   22695192.453
        49.0004         45.0004
 -13277758.93547 -10333413.05047  22874964.5824   22874968.9214   22874965.522
        47.0004         42.0004
  -7686962.41348  -5827864.00747  22180969.6924   22180970.9614   22180969.541
        50.0004         46.0004
    383735.56247    298539.83947  23913231.7664   23913236.6954   23913231.833
        47.0004         42.0004
  -1569673.54047  -1213685.81245  23881621.7114   23881636.4544   23881622.262
        45.0004         35.0004
 15  1 11  2 15 30.0000000  0 10G27G11G16G03G19G32G08G23G31G04
 -17608765.39649 -13704440.49548  20349260.1624   20349266.0834   20349259.958
        57.0004         52.0004
  -5719475.42347  -4403337.26546  24235616.7914   24235634.7184   24235617.678
        44.0004         39.0004
  -7597074.42448  -5905344.18847  22536871.8344   22536875.1744   22536872.314
        49.0004         44.0004
  -4124790.12248  -3172113.30547  22672080.6854   22672089.5284   22672080.252
        49.0004         44.0004
 -20769743.67649 -15930185.81648  20606688.9174   20606692.7244   20606689.762
        55.0004         51.0004
  -8617799.99048  -6696063.50447  22705305.3074   22705316.7294   22705305.667
        49.0004         44.0004
 -13307665.69747 -10356717.02847  22869274.0314   22869278.5914   22869275.035
        47.0004         42.0004
  -7778022.28048  -5898819.73447  22163642.6604   22163643.0014   22163642.292
        51.0004         46.0004
    387436.34747    301423.53646  23913934.0324   23913939.6234   23913935.782
        46.0004         41.0004
  -1620062.71047  -1252949.75546  23872033.2354   23872045.7354   23872033.070
        44.0004         40.0004
 15  1 11  2 16  0.0000000  0  9G27G11G16G03G19G32G08G23G31
 -17591399.23149 -13690908.40148  20352564.7564   20352570.5104   20352564.737
        57.0004         52.0004
  -5794552.73047  -4461839.01546  24221331.7674   24221347.2764   24221332.210
        44.0004         39.0004
  -7526180.41748  -5850102.07447  22550362.3114   22550366.0514   22550362.930
        49.0004         44.0004
  -4102254.56948  -3154553.26247  22676369.3694   22676379.0064   22676369.197
        49.0004         44.0004
 -20825704.73749 -15973791.75648  20596039.6564   20596043.8834   20596040.276
        56.0004         51.0004
  -8564633.18048  -6654635.07547  22715423.0304   22715434.3584   22715423.032
        49.0004         44.0004
 -13337645.67747 -10380078.05247  22863568.5404   22863573.4264   22863569.700
        47.0004         42.0004
  -7868788.31548  -5969546.49747  22146369.3244   22146371.2174   22146369.458
        51.0004         46.0004
    391249.33447    304394.63446  23914660.2374   23914665.8324   23914659.932
        46.0004         41.0004
 15  1 11  2 16 30.0000000  0  9G27G11G16G03G19G32G08G23G31
 -17573462.07849 -13676931.37748  20355978.0854   20355984.0384   20355977.790
        57.0004         52.0004
  -5869799.26047  -4520472.60146  24207012.6894   24207029.3024   24207012.840
        44.0004         40.0004
  -7455313.80948  -5794881.32447  22563848.1994   22563851.2704   22563848.120
        49.0004         44.0004
  -4079510.42348  -3136830.68547  22680698.3294   22680706.3924   22680697.181
        49.0004         44.0004
 -20881166.31149 -16017008.50348  20585485.9184   20585489.5234   20585486.510
        56.0004         51.0004
  -8511452.56248  -6613195.89347  22725543.0894   22725554.7364   22725543.587
        49.0004         45.0004
 -13367702.68547 -10403499.11847  22857850.4994   22857854.4784   22857849.784
        47.0004         42.0004
  -7959263.51248  -6040046.64447  22129152.7014   22129154.1374   22129152.564
        51.0004         46.0004
    395170.83647    307450.21446  23915408.3154   23915412.8194   23915407.887
        46.0004         41.0004
 15  1 11  2 17  0.0000000  0  9G27G11G16G03G19G32G08G23G31
 -17554946.42149 -13662503.57448  20359501.7364   20359507.6184   20359501.509
        57.0004         52.0004
  -5945205.80147  -4579230.90546  24192663.2284   24192679.6604   24192662.837
        44.0004         40.0004
  -7384468.84648  -5739677.44647  22577329.4644   22577332.1874   22577328.559
        49.0004         44.0004
  -4056552.06548  -3118941.18747  22685066.0734   22685075.4904   22685065.652
        49.0004         44.0004
 -20936118.42349 -16059828.26048  20575028.5834   20575032.2614   20575029.475
        55.0004         51.0004
  -8458252.31448  -6571741.40047  22735666.9714   22735678.2454   22735667.838
        49.0004         44.0004
 -13397827.07647 -10426972.67747  22852117.6474   22852122.7664   22852117.687
        47.0004         43.0004
  -8049436.75148  -6110311.50347  22111992.9944   22111994.3604   22111993.492
        51.0004         46.0004
    399210.59347    310598.02246  23916175.9514   23916181.3224   23916175.605
        46.0004         41.0004
 15  1 11  2 17 30.0000000  0 10G27G11G16G03G19G32G08G23G31G04
 -17535857.79349 -13647629.29848  20363133.4484   20363139.8774   20363133.256
        57.0004         52.0004
  -6020775.09647  -4638116.01446  24178283.5524   24178298.4364   24178283.204
        45.0004         40.0004
  -7313652.81048  -5684496.10547  22590804.4314   22590808.7104   22590804.815
        48.0004         44.0004
  -4033386.90548  -3100890.55047  22689474.6734   22689483.2074   22689474.039
        48.0004         44.0004
 -20990563.51349 -16102252.93648  20564668.0384   20564671.8774   20564668.569
        55.0004         51.0004
  -8405039.87548  -6530277.42547  22745793.3224   22745804.7354   22745792.885
        49.0004         44.0004
 -13428021.88447 -10450501.10847  22846371.5704   22846375.6584   22846371.819
        47.0004         42.0004
  -8139310.51848  -6180343.00047  22094890.6294   22094892.5994   22094890.201
        51.0004         46.0004
    403365.42447    313835.46047  23916967.3994   23916971.5154   23916967.700
        47.0004         43.0004
  -1315015.52449  -1018021.29645  23833286.1934   23833279.9114   23833279.454
        54.0004         35.0004
 15  1 11  2 18  0.0000000  0 10G27G11G16G03G19G32G08G23G31G04
 -17516196.12249 -13632308.49348  20366875.1814   20366881.2764   20366874.991
        57.0004         52.0004
  -6096505.30047  -4697126.49946  24163871.6274   24163886.3954   24163871.968
        45.0004         40.0004
  -7242867.48748  -5629338.69647  22604275.5214   22604277.5454   22604275.625
        48.0004         44.0004
  -4010016.79148  -3082680.20547  22693921.3054   22693931.0244   22693921.819
        48.0004         44.0004
 -21044498.35149 -16144280.00648  20554404.4334   20554408.4034   20554404.994
        55.0004         51.0004
  -8351816.84748  -6488805.17647  22755921.4754   22755932.7394   22755922.942
        49.0004         44.0004
 -13458284.59847 -10474082.46447  22840612.1714   22840617.7614   22840612.260
        47.0004         43.0004
  -8228881.18248  -6250138.31547  22077846.0104   22077847.4534   22077846.416
        51.0004         46.0004
    407637.88847    317164.59146  23917779.8364   23917785.0704   23917779.878
        46.0004         41.0004
                                                                  23823490.064

 15  1 11  2 18 30.0000000  0 10G27G11G16G03G19G32G08G23G31G04
 -17495961.75949 -13616541.43348  20370725.9224   20370731.7024   20370725.583
        57.0004         52.0004
  -6172394.57447  -4756260.93246  24149431.5204   24149444.8154   24149431.028
        45.0004         40.0004
  -7172115.02648  -5574206.89447  22617739.1464   22617742.8744   22617739.432
        48.0004         44.0004
  -3986443.83448  -3064311.81047  22698407.3214   22698417.1614   22698406.787
        48.0004         43.0004
 -21097920.25049 -16185907.38848  20544238.6934   20544242.6064   20544239.593
        55.0004         51.0004
  -8298585.23948  -6447326.24547  22766051.2734   22766063.3024   22766050.558
        49.0004         44.0004
 -13488613.27347 -10497715.19847  22834841.6054   22834846.0964   22834841.076
        47.0004         43.0004
  -8318145.47748  -6319694.90647  22060859.7894   22060861.4274   22060859.527
        51.0004         46.0004
    412029.94647    320586.92447  23918615.9764   23918621.1534   23918617.213
        46.0004         42.0004
                                                                  23813664.801

 15  1 11  2 19  0.0000000  0  9G27G11G16G03G19G32G08G23G31
 -17475157.13949 -13600330.02348  20374684.7704   20374690.9214   20374684.394
        57.0004         52.0004
  -6248443.24747  -4815519.56946  24134958.2654   24134973.3104   24134959.286
        45.0004         40.0004
  -7101399.39748  -5519103.81147  22631195.1124   22631198.8264   22631196.586
        49.0004         44.0004
  -3962672.31048  -3045788.68947  22702931.0384   22702941.5074   22702930.060
        48.0004         44.0004
 -21150828.68349 -16227134.66648  20534170.5164   20534174.2144   20534171.334
        55.0004         51.0004
  -8245349.14448  -6405843.82147  22776182.7544   22776194.4324   22776183.388
        49.0004         44.0004
 -13519007.50647 -10521399.03247  22829058.3334   22829062.1804   22829058.746
        47.0004         43.0004
  -8407102.61348  -6389012.15747  22043931.4444   22043933.2424   22043932.058
        51.0004         46.0004
    416541.65247    324102.45346  23919473.1324   23919477.7814   23919471.901
        46.0004         41.0004
 15  1 11  2 19 30.0000000  0 10G27G11G16G03G19G32G08G23G31G04
 -17453778.48249 -13583671.30548  20378752.9574   20378758.9034   20378752.908
        57.0004         52.0004
  -6324645.26747  -4874897.69646  24120458.2094   24120472.9864   24120458.748
        45.0004         41.0004
  -7030718.24648  -5464027.58747  22644645.7734   22644648.3644   22644645.517
        48.0004         43.0004
  -3938700.19848  -3027109.24547  22707494.3804   22707503.7714   22707492.615
        48.0004         44.0004
 -21203216.73949 -16267956.44448  20524201.5964   20524205.1874   20524202.573
        56.0004         51.0004
  -8192106.41148  -6364356.23147  22786312.6604   22786324.0084   22786313.560
        49.0004         44.0004
 -13549461.37547 -10545129.32647  22823262.8404   22823267.6324   22823263.038
        47.0004         42.0004
  -8495745.08948  -6458084.21347  22027064.0014   22027065.0374   22027064.466
        51.0004         46.0004
    421179.49547    327716.23847  23920356.6094   23920362.6684   23920356.522
        47.0004         43.0004
  -1186385.26459                  23793882.1935                   23793892.148
        58.0004
 15  1 11  2 20  0.0000000  0 10G27G11G16G03G19G32G08G23G31G04
 -17431831.41249 -13566569.66848  20382929.5224   20382935.2394   20382929.225
        57.0004         52.0004
  -6401003.80847  -4934397.76946  24105927.5724   24105943.2034   24105926.977
        45.0004         41.0004
  -6960078.87148  -5408983.91247  22658087.4514   22658090.3234   22658087.387
        48.0004         43.0004
  -3914534.84248  -3008279.25047  22712092.6444   22712102.2154   22712091.805
        48.0004         44.0004
 -21255086.93849 -16308374.70648  20514330.8564   20514334.2864   20514331.674
        56.0004         51.0004
  -8138864.21148  -6322869.04547  22796445.9724   22796458.1664   22796446.289
        49.0004         44.0004
 -13579977.80047 -10568908.37047  22817456.0874   22817459.9194   22817456.242
        47.0004         43.0004
  -8584075.07548  -6526912.78347  22010254.7804   22010256.5454   22010254.724
        51.0004         46.0004
    425940.03047    331425.68646  23921263.5174   23921268.4674   23921263.875
        46.0004         41.0004
                                                                  23783968.106

 15  1 11  2 20 30.0000000  0 10G27G11G16G03G19G32G08G23G31G04
 -17409310.64149 -13549020.99448  20387215.0344   20387220.9594   20387214.876
        57.0004         52.0004
  -6477511.54447  -4994014.07646  24091368.6204   24091383.7664   24091367.327
        45.0004         40.0004
  -6889477.87948  -5353970.13047  22671522.7374   22671526.0634   22671524.105
        48.0004         43.0004
  -3890172.75348  -2989295.95247  22716728.3724   22716737.0084   22716727.297
        48.0004         43.0004
 -21306431.13849 -16348383.09548  20504560.3734   20504563.9084   20504561.292
        56.0004         51.0004
  -8085618.71448  -6281379.29847  22806577.8534   22806589.7464   22806577.641
        49.0004         44.0004
 -13610548.88547 -10592729.99547  22811637.0684   22811642.4534   22811636.762
        47.0004         42.0004
  -8672083.76548  -6595490.98247  21993507.5694   21993508.9404   21993507.971
        51.0004         47.0004
    430831.10347    335236.83246  23922193.9594   23922199.0484   23922192.906
        46.0004         41.0004
  -1150668.89649   -884872.98446  23773974.2854   23773989.5194   23773973.646
        55.0004         39.0004
 15  1 11  2 21  0.0000000  0  9G27G11G16G03G19G32G08G23G31
 -17386221.91349 -13531029.75348  20391608.3994   20391614.4994   20391608.467
        57.0004         52.0004
  -6554171.82447  -5053749.23946  24076779.2924   24076794.7504   24076779.866
        45.0004         40.0004
  -6818922.24248  -5298991.69847  22684949.0294   22684953.2524   22684949.527
        48.0004         44.0004
  -3865621.37548  -2970165.17647  22721399.9224   22721410.2664   22721399.229
        48.0004         44.0004
 -21357251.92249 -16387983.63048  20494888.9844   20494892.7524   20494889.879
        56.0004         51.0004
  -8032377.34148  -6239892.74447  22816710.5664   22816721.4334   22816710.676
        49.0004         44.0004
 -13641177.60147 -10616596.52847  22805808.9654   22805813.6904   22805809.402
        47.0004         43.0004
  -8759773.39148  -6663820.57447  21976820.7774   21976822.5864   21976821.019
        51.0004         46.0004
    435849.80247    339147.41046  23923148.5834   23923155.0254   23923148.726
        46.0004         41.0004
 15  1 11  2 21 30.0000000  0 10G27G11G16G03G19G32G08G23G31G04
 -17362564.81149 -13512595.63048  20396110.2844   20396116.4324   20396110.439
        57.0004         52.0004
  -6630981.74647  -5113601.00046  24062164.2784   24062178.3554   24062164.475
        45.0004         40.0004
  -6748412.94148  -5244049.38747  22698365.8064   22698368.2734   22698367.235
        48.0004         43.0004
  -3840881.99148  -2950887.88347  22726107.9494   22726116.7874   22726107.988
        48.0004         44.0004
 -21407545.88749 -16427173.65848  20485318.6714   20485322.1324   20485319.161
        56.0004         51.0004
  -7979141.07448  -6198410.15347  22826840.6184   22826853.3144   22826840.326
        49.0004         44.0004
 -13671861.07547 -10640505.74147  22799970.7754   22799975.3414   22799971.281
        47.0004         43.0004
  -8847140.11548  -6731898.54447  21960195.4904   21960196.6924   21960196.257
        51.0004         47.0004
    440998.88447    343159.52946  23924128.0384   23924134.9574   23924128.962
        46.0004         41.0004
                                                                  23753901.205

 15  1 11  2 22  0.0000000  0 10G27G11G16G03G19G32G08G23G31G04
 -17338336.49949 -13493716.40148  20400720.7604   20400726.8834   20400720.658
        57.0004         52.0004
  -6707936.18547  -5173565.38646  24047519.6404   24047535.2584   24047521.210
        45.0004         40.0004
  -6677948.67848  -5189142.16247  22711774.3364   22711777.3024   22711775.232
        48.0004         43.0004
  -3815953.40648  -2931463.17247  22730851.4724   22730861.4914   22730851.347
        48.0004         44.0004
 -21457306.83849 -16465948.34248  20475849.3574   20475852.8714   20475850.171
        56.0004         51.0004
  -7925908.48548  -6156930.44447  22836969.7894   22836983.5104   22836970.846
        49.0004         44.0004
 -13702593.58947 -10664453.17547  22794122.1314   22794126.9694   22794123.321
        47.0004         43.0004
  -8934177.26748  -6799719.71347  21943633.1904   21943634.2744   21943632.440
        51.0004         47.0004
    446283.59547    347277.43047  23925134.2974   23925140.3384   23925134.662
        46.0004         42.0004
  -1201275.33147                  23743811.0804                   23743810.112
        46.0004
 15  1 11  2 22 30.0000000  0 10G27G11G16G03G19G32G08G23G31G04
 -17313544.51549 -13474397.95548  20405438.5434   20405444.4734   20405438.598
        57.0004         52.0004
  -6785039.91247  -5233646.07646  24032847.6704   24032862.8854   24032847.461
        45.0004         40.0004
  -6607538.37348  -5134276.97847  22725174.6404   22725177.3144   22725175.146
        48.0004         43.0004
  -3790844.85948  -2911898.23347  22735629.2864   22735641.2414   22735629.308
        48.0004         44.0004
 -21506539.12049 -16504311.10048  20466480.8014   20466484.3814   20466481.488
        56.0004         51.0004
  -7872688.64848  -6115460.68047  22847097.2064   22847109.9134   22847098.131
        49.0004         44.0004
 -13733379.88847 -10688442.47547  22788263.7614   22788267.5254   22788264.338
        47.0004         43.0004
  -9020888.77548  -6867287.11947  21927132.1834   21927133.1584   21927132.850
        51.0004         47.0004
    451699.38247    351497.48746  23926165.1794   23926170.9874   23926164.714
        46.0004         41.0004
  -1254504.09347                  23733682.6694                   23733681.986
        44.0004
 15  1 11  2 23  0.0000000  0 10G27G11G16G03G19G32G08G23G31G04
 -17288185.59849 -13454637.73048  20410264.1934   20410270.1904   20410263.960
        57.0004         52.0004
  -6862287.40547  -5293838.77746  24018148.8564   24018161.8474   24018147.824
        45.0004         40.0004
  -6537180.40048  -5079452.57147  22738562.9754   22738565.9724   22738563.424
        48.0004         43.0004
  -3765554.58948  -2892191.69047  22740443.0344   22740452.5384   22740442.164
        48.0004         44.0004
 -21555237.11549 -16542257.51848  20457213.8594   20457217.1004   20457214.870
        56.0004         51.0004
  -7819479.60048  -6073999.31347  22857223.2844   22857235.9124   22857223.784
        49.0004         44.0004
 -13764214.00547 -10712469.07347  22782396.5704   22782400.5824   22782396.851
        47.0004         43.0004
  -9107267.79248  -6934595.44247  21910694.6204   21910696.2914   21910694.682
        51.0004         47.0004
    457252.01847    355824.11147  23927221.3464   23927227.2254   23927222.173
        46.0004         42.0004
  -1307927.69946                  23723517.4894                   23723515.816
        41.0004
 15  1 11  2 23 30.0000000  0 10G27G11G16G03G19G32G08G23G31G04
 -17262259.89349 -13434435.85748  20415197.6584   20415203.5234   20415197.398
        57.0004         52.0004
  -6939676.31647  -5354141.64746  24003421.2284   24003437.3244   24003421.818
        45.0004         41.0004
  -6466876.04148  -5024669.94347  22751941.8364   22751943.4034   22751941.767
        48.0004         43.0004
  -3740084.42648  -2872344.95747  22745290.5024   22745299.4644   22745289.571
        48.0004         44.0004
 -21603397.38449 -16579784.92848  20448049.0914   20448052.4924   20448049.943
        56.0004         51.0004
  -7766282.81948  -6032547.52447  22867347.2994   22867359.6914   22867347.868
        49.0004         44.0004
 -13795093.30348 -10736530.86447  22776520.7484   22776524.3764   22776520.128
        48.0004         43.0004
  -9193310.68548  -7001641.85347  21894321.0654   21894322.6654   21894320.413
        51.0004         47.0004
    462943.92847    360259.24447  23928304.7374   23928311.1804   23928305.774
        46.0004         42.0004
  -1361538.28946                  23713314.5384                   23713313.545
        41.0004
